city,lat,lng,pop,country
Qal eh-ye Now,34.98300013,63.13329964,2997,Afghanistan
Chaghcharan,34.5167011,65.25000063,15000,Afghanistan
Lashkar Gah,31.58299802,64.35999955,201546,Afghanistan
Zaranj,31.11200108,61.88699752,49851,Afghanistan
Tarin Kowt,32.63329815,65.86669865,10000,Afghanistan
Zareh Sharan,32.85000016,68.41670453,13737,Afghanistan
Asadabad,34.86600004,71.15000459,48400,Afghanistan
Taloqan,36.72999904,69.54000364,64256,Afghanistan
Mahmud-E Eraqi,35.01669608,69.33330065,7407,Afghanistan
Mehtar Lam,34.65000001,70.16670052,17345,Afghanistan
Baraki Barak,33.9667021,68.96670354,22305,Afghanistan
Aybak,36.26100015,68.04000051,24000,Afghanistan
Mayda Shahr,34.45000209,68.79999663,35008,Afghanistan
Karokh,34.48676963,62.59177608,14388.5,Afghanistan
Sheberghan,36.65798077,65.73830237,74441,Afghanistan
Pol-e Khomri,35.95107302,68.70111894,41029,Afghanistan
Balkh,36.75011985,66.89973018,147426,Afghanistan
Meymaneh,35.93022158,64.77009273,199795,Afghanistan
Andkhvoy,36.93165916,65.10149369,50469,Afghanistan
Qalat,32.11226341,66.8867594,12191,Afghanistan
Ghazni,33.56331179,68.41782873,129892.5,Afghanistan
Feyzabad,37.12976076,70.57924719,52490,Afghanistan
Kondoz,36.72795066,68.87252966,210855.5,Afghanistan
Jalalabad,34.44152692,70.43610347,401697,Afghanistan
Charikar,35.01826174,69.16791215,53676,Afghanistan
Gardiz,33.60005373,69.21462764,82680.5,Afghanistan
Bamian,34.82106447,67.52103593,61863,Afghanistan
Baghlan,36.13933026,68.69925858,163598.5,Afghanistan
Farah,32.39172955,62.09681921,58604,Afghanistan
Herat,34.33000917,62.16999304,439232.5,Afghanistan
Mazar-e Sharif,36.69999371,67.10002803,365432.5,Afghanistan
Kandahar,31.61002016,65.69494584,613871,Afghanistan
Kabul,34.51669029,69.18326005,3160266,Afghanistan
Mariehamn,60.09699618,19.94900447,10682,Aland
Kruje,41.51899817,19.79700359,21286,Albania
Fier,40.73000402,19.5730026,69747.5,Albania
Lushnje,40.94000113,19.71600348,41469,Albania
Puke,42.03330302,19.88330448,6495,Albania
Bajram Curri,42.33330007,20.08330257,7967,Albania
Kukes,42.08300107,20.43399653,17832,Albania
Sarande,39.87700212,19.99999859,15147,Albania
Erseke,40.33330213,20.68329651,7890,Albania
Pogradec,40.89999612,20.66400062,35000,Albania
Korce,40.61667601,20.76666353,58259,Albania
Berat,40.70999705,19.97199958,46866,Albania
Corovode,40.51670403,20.23329663,14046,Albania
Gramsh,40.86669601,20.19999652,11556,Albania
Librazhd,41.20000211,20.3667036,12691,Albania
Tepelene,40.2832981,20.03329854,11955,Albania
Permet,40.23399605,20.35199756,10686,Albania
Gjirokaster,40.07899809,20.14900256,23437,Albania
Peshkopi,41.6833021,20.43330349,14848,Albania
Burrel,41.62599908,20.01600053,15405,Albania
Lezhe,41.78799914,19.65400254,18695,Albania
Rreshen,41.78330106,19.81670459,10064,Albania
Vlore,40.47736005,19.49823075,89508.5,Albania
Elbasan,41.12150677,20.08382808,132956.5,Albania
Durres,41.3177997,19.44820797,132233,Albania
Shkoder,42.06845156,19.51884965,122006,Albania
Tirana,41.32754071,19.81888301,658318,Albania
Jijel,36.82199703,5.76600356,148000,Algeria
Tizi-Ouzou,36.80000111,4.033332556,144000,Algeria
Bordj Bou Arreridj,36.05900401,4.629996466,134500,Algeria
M'sila,35.7000031,4.545000584,125000,Algeria
Guelma,36.46600213,7.427997486,123590,Algeria
Oum el Bouaghi,35.84999715,7.149996522,100821,Algeria
Timimoun,29.23652163,0.269998737,26568,Algeria
Sidi bel Abbes,35.19034426,-0.639971559,200186.5,Algeria
Tlimcen,34.89041424,-1.32000757,181059,Algeria
Beni Ounif,32.04926984,-1.251381268,5628,Algeria
Abadla,31.01708478,-2.733306317,14364,Algeria
Sefra,32.76041506,-0.579949383,51118,Algeria
Skikda,36.88042198,6.899981647,193941.5,Algeria
Djanet,24.5529057,9.482252969,666,Algeria
I-n-Amenas,28.0503408,9.550000772,216,Algeria
In Amguel,23.69394004,5.164738727,3030,Algeria
El Bayadh,33.6903583,1.009953571,67413,Algeria
El Oued,33.37040367,6.859984089,177497,Algeria
Hassi Messaoud,31.70234011,6.054451862,18124,Algeria
Chlef,36.17041363,1.319960489,449167,Algeria
Mascara,35.40040895,0.14003251,108230,Algeria
Mostaganem,35.940376,0.089983885,159177,Algeria
Saida,34.84039146,0.14003251,134855,Algeria
Tiarat,35.38043601,1.319960489,184195,Algeria
Bejaia,36.76037762,5.070015827,274520,Algeria
Blida,36.4203467,2.829997517,388174,Algeria
Bouira,36.38047833,3.900009724,110144,Algeria
Medea,36.27040753,2.770001179,145863.5,Algeria
Souk Ahras,36.29038047,7.949995075,134947,Algeria
Tebessa,35.41043418,8.120010537,171742,Algeria
Adrar,27.86999005,-0.289967083,56910,Algeria
Reggane,26.69998395,0.166645873,22351.5,Algeria
Bechar,31.61110537,-2.230003704,142415.5,Algeria
Tindouf,27.67418805,-8.147782025,18270,Algeria
Illizi,26.48335634,8.466604369,7293,Algeria
Arak,25.2799931,3.749993041,423251,Algeria
I-n-Salah,27.21664492,2.466608845,28632,Algeria
El Golea,30.56662132,2.883327595,32049,Algeria
Laghouat,33.80998924,2.880020303,108279,Algeria
Touggourt,33.0999809,6.05998124,91499,Algeria
Ouargla,31.96997235,5.340025186,176271,Algeria
Biskra,34.85997683,5.73002722,202103,Algeria
Djelfa,34.67998781,3.250023558,170901,Algeria
Setif,36.18002545,5.399969847,274744,Algeria
Batna,35.56995933,6.170000365,269467,Algeria
Annaba,36.92000612,7.759980834,355047,Algeria
Constantine,36.35998863,6.599948281,527638,Algeria
Oran,35.71000246,-0.61997278,721992,Algeria
Tamanrasset,22.78500327,5.522804727,71808,Algeria
Ghardaia,32.48999229,3.669997923,125480,Algeria
Algiers,36.7630648,3.05055253,2665831.5,Algeria
Pago Pago,-14.2766105,-170.7066451,12038,American Samoa
Andorra,42.50000144,1.516485961,38127,Andorra
Mucusso,-18.01953449,21.42999914,100,Angola
Lucapa,-8.419603659,20.74001542,25578,Angola
Capenda-Camulemba,-9.4195943,18.43002722,79842.5,Angola
Saurimo,-9.659579652,20.39001094,40907,Angola
Muconda,-10.59962563,21.31998002,2324,Angola
Cacolo,-10.14962726,19.2600024,984,Angola
Caxito,-8.579542217,13.65998246,15665.5,Angola
Camabatela,-8.189591859,15.37000728,12731,Angola
Ndalatando,-9.299549948,14.90998368,8144,Angola
Quibala,-10.72959186,14.97995357,5248.5,Angola
Calulo,-9.999610577,14.90001013,795,Angola
Waku Kungo,-11.35952757,15.1199967,11519.5,Angola
Songo,-7.349591452,14.84998734,10579,Angola
Mbanza-Congo,-6.269605694,14.23999874,42201,Angola
Nzeto,-7.229598776,12.86003129,19705.5,Angola
Soyo,-6.129614239,12.36998368,65329,Angola
Cabinda,-5.55962319,12.18999467,78905.5,Angola
Calucinga,-11.31958169,16.19998246,531,Angola
Camacupa,-12.01959064,17.46998246,19489,Angola
Cubal,-13.03958006,14.23999874,4837,Angola
Mavinga,-15.7895414,20.36003861,30000,Angola
Cuito Caunavale,-15.15960569,19.16998205,149,Angola
Luiana,-17.36954832,22.99998083,150,Angola
Ondjiva,-17.06961831,15.73003699,8748,Angola
Chitado,-17.31962889,13.92001827,468.5,Angola
Chibemba,-15.74959552,14.0800085,1502,Angola
Chibia,-15.1896297,13.69000647,1411,Angola
Quipungo,-14.82954832,14.55000565,186,Angola
Luau,-10.7095414,22.23000199,9964,Angola
Cangamba,-13.69959145,19.86001745,1307,Angola
Lumbala Nguimbo,-14.09961871,21.44002437,25,Angola
Cazombo,-11.88957273,22.90003861,298,Angola
Dundo,-7.380028871,20.82998409,11985,Angola
Ambriz,-7.85498696,13.12502803,17000,Angola
Dondo,-9.690017071,14.43001298,2353,Angola
Sumbe,-11.21002765,13.8499967,29638.5,Angola
Uige,-7.620014222,15.04997514,56787.5,Angola
Kuito,-12.38003375,16.93998897,113955,Angola
Lobito,-12.37000853,13.54123002,170733,Angola
Xangongo,-16.74002602,14.96998002,447,Angola
Luena,-11.79004393,19.90001501,17276.5,Angola
Tômbua,-15.80003172,11.85998897,40000,Angola
Malanje,-9.540000388,16.34002559,106451,Angola
Benguela,-12.57826455,13.40723303,142017,Angola
Lubango,-14.91000853,13.49001868,114086.5,Angola
Namibe,-15.19004311,12.16002234,128130.5,Angola
Menongue,-14.66661253,17.69999426,13030,Angola
Huambo,-12.74998533,15.76000932,986000,Angola
Luanda,-8.838286114,13.23442704,3562086,Angola
Artigas Base,-62.17388669,-58.86386407,34.5,Antarctica
Capitan Arturo Prat Station,-62.49950682,-59.68331852,41,Antarctica
Marambio Station,-64.23288939,-56.6500153,102.5,Antarctica
Zucchelli Station,-74.61919259,164.2190271,60,Antarctica
Rothera Station,-67.5647756,-68.12354055,76,Antarctica
Palmer Station,-64.76241335,-64.0468756,30.5,Antarctica
Base Presidente Montalva,-62.18274357,-58.90765233,115,Antarctica
Carlini Station,-62.22414386,-58.65047599,40,Antarctica
King Sejong Station,-62.2248534,-58.77159876,53.5,Antarctica
Great Wall Station,-62.21631997,-58.9666956,26,Antarctica
Escudero Base,-62.19496251,-58.95266582,20,Antarctica
Elephant Island,-61.99958901,-57.99998458,3,Antarctica
Scott Base,-77.84693819,166.7491023,49.5,Antarctica
McMurdo Station,-77.73228239,166.8694157,600,Antarctica
Zhongshan Station,-69.43406299,76.33929808,42.5,Antarctica
Vostok,-78.46628416,106.8000337,19,Antarctica
Peter I Island,-68.83286701,90.49999508,0.5,Antarctica
Mirny Station,-66.57552952,93.00628846,114.5,Antarctica
Mawson Station,-67.61452032,62.87500073,40,Antarctica
Davis Station,-68.77767439,78.14073509,45,Antarctica
Concordia Research Station,-74.66630939,124.1670357,15,Antarctica
Casey Station,-66.28608614,110.536214,125,Antarctica
Amundsen–Scott South Pole Station,-89.98289386,139.2669926,125,Antarctica
Wasa Station,-73.0496122,-13.41671106,5,Antarctica
Troll Station,-72.01629026,2.533323119,25.5,Antarctica
Svea Station,-74.58290363,-11.21669031,5,Antarctica
Novolazarevskaya Station,-71.30123475,-11.8502129,35,Antarctica
Neumayer Station III,-70.89039668,-7.838438004,40,Antarctica
Maitri Station,-70.7821796,11.7304584,33,Antarctica
Halley Station,-76.09226319,-26.4741567,43,Antarctica
Belgrano Station,-77.86632078,-34.61668319,57,Antarctica
Camp Sobral,-81.17908472,-40.50153152,20,Antarctica
Aboa Station,-75.04959349,-13.41671106,15,Antarctica
San Martín Station,-68.1163216,-67.0999976,19,Antarctica
Gen. O'Higgins Station,-63.32841823,-57.88959352,30,Antarctica
Esperanza Station,-63.37532865,-57.02590151,152.5,Antarctica
Orcadas Station,-60.7328963,-44.73330082,29.5,Antarctica
Signy Research Station,-60.63130815,-45.60070332,4,Antarctica
Dumont d'Urville Station,-66.77505091,139.9636836,75,Antarctica
Showa Station,-69.03039249,39.7460831,50,Antarctica
Saint John's,17.11803652,-61.85003382,29862.5,Antigua and Barbuda
28 de Noviembre,-51.65003986,-72.30001612,5300,Argentina
Gobernador Gregores,-48.76659829,-70.25001205,2519,Argentina
Comondante Luis Piedrabuena,-49.97454865,-68.90347273,410,Argentina
Paso Rio Mayo,-45.68337563,-70.26657434,1825,Argentina
Alto Rio Sanguer,-45.03328611,-70.83328394,1548,Argentina
El Maiten,-42.05000568,-71.16662276,4269,Argentina
Puerto Madryn,-42.77001341,-65.04001998,61159,Argentina
Trelew,-43.25003579,-65.3299506,93128.5,Argentina
Las Heras,-32.82503904,-68.80167668,66663,Argentina
San Martin,-33.06998533,-68.49001612,99974,Argentina
Uspallata,-32.59311522,-69.34598454,2390,Argentina
Cutral Co,-38.94001463,-69.24002202,47597,Argentina
Punta Alta,-38.87996662,-62.0799681,55969.5,Argentina
San Nicolas,-33.33002114,-60.24000289,117123.5,Argentina
Campana,-34.15999632,-58.95997766,77149.5,Argentina
Chacabuco,-34.65004393,-60.48998763,26645,Argentina
Mercedes,-34.66001748,-59.44002588,48408.5,Argentina
Lincoln,-34.88000405,-61.53994938,19924,Argentina
Chivilcoy,-34.89995115,-60.03998926,43719,Argentina
Veinticinco de Mayo,-35.42999632,-60.17998071,18749,Argentina
Nueve de Julio,-35.44596434,-60.88998906,26716,Argentina
Dolores,-36.33004474,-57.68997766,21586.5,Argentina
Pedro Luro,-39.48334064,-62.68331629,7100,Argentina
Tres Arroyos,-38.3699719,-60.26994938,34773.5,Argentina
Coronel Suarez,-37.46661619,-61.9166189,20713,Argentina
Balcarce,-37.83331216,-58.24999516,18967,Argentina
25 de Mayo,-37.80003253,-67.68329533,17430,Argentina
General Roca,-39.01995807,-67.60996647,38578,Argentina
Comallo,-41.03332355,-70.26657434,741,Argentina
Ingeniero Jacobacci,-41.30002562,-69.58330855,5719,Argentina
General Conesa,-40.10004718,-64.43328699,2958,Argentina
Choele Choel,-39.26660968,-65.68331405,9895.5,Argentina
San Francisco,-31.43003375,-62.08996749,43231,Argentina
Alta Gracia,-31.65999388,-64.4299797,30593,Argentina
Villa Maria,-32.41002562,-63.26002527,76701,Argentina
Bell Ville,-32.60003986,-62.67995732,29605,Argentina
Villa Rumipal,-32.18332111,-64.48328394,1269,Argentina
Villa Carlos Paz,-31.42000853,-64.50000126,60256,Argentina
Chumbicha,-28.86662433,-66.23330632,2572,Argentina
Tinogasta,-28.06662148,-67.56658411,587,Argentina
Abra Pampa,-22.7166638,-65.6999797,4480,Argentina
Humahuaca,-23.19999347,-65.34994938,11369,Argentina
Susques,-23.41667275,-66.4833169,1093,Argentina
Chepes,-31.34998696,-66.5999506,6020,Argentina
Yacuiba,-22.03003904,-63.69999841,64811,Argentina
Tartagal,-22.55000731,-63.81001754,59996.5,Argentina
Joaquin V. Gonzalez,-25.08334105,-64.18335392,13376,Argentina
General Guemes,-24.6666223,-65.04996769,19828,Argentina
Trancas,-26.21665688,-65.28331262,1599,Argentina
Presidencia Roque Saenz Pena,-26.7900069,-60.45001591,75958,Argentina
Pampa del Infierno,-26.51658689,-61.16658716,2921,Argentina
Villa Angela,-27.58329181,-60.7166663,30051,Argentina
Ingeniero Guillermo N. Juarez,-23.90000242,-61.84998214,6453,Argentina
Comandante Fontana,-25.33329995,-59.68331852,4277,Argentina
Doctor Pedro P. Pena,-22.47998574,-62.29998051,6143,Argentina
San Lorenzo,-28.12000324,-58.76998926,25833.5,Argentina
Corrientes,-27.48996417,-58.80998682,339945,Argentina
Concepcion del Uruguay,-32.47999551,-58.23999577,48275,Argentina
Victoria,-32.61001341,-60.17998071,20032.5,Argentina
Gualeguay,-33.15003213,-59.34000615,25913,Argentina
Parana,-31.73332273,-60.53334416,226852,Argentina
Villa Constitucion,-33.23002724,-60.35002202,30282.5,Argentina
Rafaela,-31.25004474,-61.49997766,69649,Argentina
Eldorado,-26.20001707,-54.59998539,17365,Argentina
Rodeo,-30.21558592,-69.1399506,701,Argentina
Las Plumas,-43.41627887,-67.24998845,605,Argentina
Gastre,-42.28296303,-69.23330408,557,Argentina
Telsen,-42.39959674,-66.95000676,493,Argentina
Malargue,-35.46611815,-69.58330855,11847,Argentina
Tunuyan,-33.56618244,-69.01667647,22834,Argentina
La Paz,-33.46613686,-67.54999597,4400,Argentina
Chos Malal,-37.38295205,-70.26657434,8556,Argentina
Las Lajas,-38.51626788,-70.36659408,1218,Argentina
Zarate,-34.08956134,-59.04002446,86192,Argentina
Carhue,-37.1828609,-62.73331323,7190,Argentina
Darregueira,-37.69957355,-63.16659428,3412,Argentina
Juarez,-37.66551878,-59.80002975,10609,Argentina
Mar de Ajo,-36.71622272,-56.67660283,13610,Argentina
Lobos,-35.184895,-59.09467228,18278,Argentina
Chascomus,-35.56621539,-58.01662439,21054,Argentina
Junin,-34.58456989,-60.95887374,66141.5,Argentina
La Plata,-34.90961465,-57.95996118,440388.5,Argentina
Pergamino,-33.89959878,-60.56998275,71448,Argentina
Lujan,-34.57960895,-59.10999435,69744.5,Argentina
Azul,-36.7796297,-59.86999964,43407.5,Argentina
Villalonga,-39.88285114,-62.58332239,2838,Argentina
Victorica,-36.21625324,-65.45002079,4458,Argentina
General Pico,-35.65959471,-63.77001998,46483,Argentina
San Antonio Oeste,-40.73287677,-64.93328231,8492,Argentina
Sierra Colorado,-40.58286009,-67.79998071,1522,Argentina
Mercedes,-33.68958576,-65.4699679,49345,Argentina
Rio Tercero,-32.1796004,-64.12002446,38049.5,Argentina
Belen,-27.64959267,-67.03328333,11359,Argentina
Rinconada,-22.43290851,-66.16659204,6209.5,Argentina
San Pedro,-24.21962116,-64.87000452,55249,Argentina
Libertador General San Martin,-23.81954222,-64.78998356,47559,Argentina
Chilecito,-29.16552081,-67.49999903,20343,Argentina
Chamical,-30.34958291,-66.3166604,8989,Argentina
Los Blancos,-23.59960732,-62.60003972,1145,Argentina
Cafayate,-26.08291828,-65.96660425,9478,Argentina
Cerrillos,-24.89963133,-65.48330042,11498,Argentina
San Antonio de los Cobres,-24.18293089,-66.35001754,4000,Argentina
Anatuya,-28.46613198,-62.83330713,14133,Argentina
Frias,-28.64958331,-65.14998743,13594,Argentina
Monte Quemado,-25.79962807,-62.86658675,11387,Argentina
Juan Jose Castelli,-25.9495414,-60.61664657,9421,Argentina
Charata,-27.21628579,-61.19999597,18297,Argentina
Las Lomitas,-24.69959186,-60.60000676,7683,Argentina
Mercedes,-29.1795768,-58.0799797,22872.5,Argentina
Concordia,-31.38957111,-58.02998275,132760.5,Argentina
Sunchales,-30.93290648,-61.56661442,12655,Argentina
San Justo,-30.78288979,-60.58328943,9607,Argentina
Vera,-29.4661743,-60.21659347,9979,Argentina
Reconquista,-29.13952757,-59.65001306,86640.5,Argentina
Venado Tuerto,-33.74958209,-61.97000065,52079,Argentina
Esquel,-42.90003131,-71.31661361,20048,Argentina
Zapala,-38.90001707,-70.06666406,19152,Argentina
Olavarria,-36.90003579,-60.3299974,65059,Argentina
Tandil,-37.32001015,-59.15004358,84799.5,Argentina
Viedma,-40.79995278,-63.0000153,54031,Argentina
San Luis,-33.29999713,-66.35001754,308146,Argentina
Rio Cuarto,-33.13003335,-64.34998458,135959.5,Argentina
San Salvador de Jujuy,-24.1833443,-65.30002995,258739,Argentina
San Ramon de la Nueva Oran,-23.13999713,-64.32001225,69461.5,Argentina
Goya,-29.13999266,-59.26998458,71274.5,Argentina
Puerto San Julian,-49.30000242,-67.71665247,2347,Argentina
Perito Moreno,-46.60001219,-70.93335535,3766,Argentina
Rio Grande,-53.79144552,-67.6989952,31095,Argentina
Ushuaia,-54.79000324,-68.31000126,50483.5,Argentina
Sarmiento,-45.60002155,-69.08331323,5185,Argentina
San Rafael,-34.60002114,-68.33333317,79523.5,Argentina
Necochea,-38.55998615,-58.74999048,70562,Argentina
Rio Colorado,-38.96657632,-64.08328251,11499,Argentina
Catamarca,-28.47000771,-65.78000065,162586,Argentina
La Rioja,-29.40995034,-66.84996118,147130,Argentina
Santiago del Estero,-27.78333128,-64.26665633,317549.5,Argentina
Resistencia,-27.45999184,-58.99002751,368455.5,Argentina
Gualeguaychu,-33.02001422,-58.52000452,55860.5,Argentina
El Calafate,-50.33332436,-72.30001612,6329,Argentina
San Juan,-31.55002643,-68.51998845,433892,Argentina
Rawson,-43.3000069,-65.09999048,25062.5,Argentina
Neuquen,-38.95003986,-68.05999068,213823.5,Argentina
Santa Rosa,-36.6200012,-64.29998763,97693.5,Argentina
San Carlos de Bariloche,-41.14995726,-71.29999964,91953,Argentina
Salta,-24.78335936,-65.41663782,484646,Argentina
Tucumán,-26.81600014,-65.21662419,678803.5,Argentina
Formosa,-26.17283527,-58.1828158,202272,Argentina
Santa Fe,-31.62387205,-60.69000126,393504,Argentina
Rosario,-32.95112954,-60.66630762,1094784.5,Argentina
Puerto Deseado,-47.75001951,-65.89996749,3305,Argentina
Rio Gallegos,-51.63329669,-69.21658675,77183,Argentina
Comodoro Rivadavia,-45.87003091,-67.49999903,123291,Argentina
Mendoza,-32.88333006,-68.81661117,827815,Argentina
Bahia Blanca,-38.74002684,-62.2650214,279041,Argentina
Mar del Plata,-38.00002033,-57.57998438,554916,Argentina
Córdoba,-31.39995807,-64.18229456,1374467.5,Argentina
Posadas,-27.3578321,-55.88510735,334589.5,Argentina
Buenos Aires,-34.60250161,-58.39753137,11862073,Argentina
Ashtarak,40.3016667,44.3591667,18779,Armenia
Ijevan,40.8755556,45.1491667,14737,Armenia
Artashat,39.9538889,44.5505556,20562,Armenia
Gavarr,40.3588889,45.1266667,21680,Armenia
Yeghegnadzor,39.7611111,45.3333333,8200,Armenia
Gyumri,40.78943402,43.84749385,140277.5,Armenia
Vanadzor,40.81276593,44.48828162,89295,Armenia
Yerevan,40.18115074,44.51355139,1097742.5,Armenia
Oranjestad,12.53038373,-70.02899195,50887.5,Aruba
Central Coast,-33.42004148,151.3000048,3026,Australia
Sunshine Coast,-26.67998777,153.0500272,57215.5,Australia
Bourke,-30.1,145.9333333,2475,Australia
Pine Creek,-13.81617348,131.816698,505,Australia
Adelaide River,-13.2495414,131.0999975,237,Australia
McMinns Lagoon,-12.53289264,131.0500264,5025,Australia
Newcastle Waters,-17.55279295,133.4672432,10,Australia
Ravensthorpe,-33.58287392,120.0333345,639,Australia
Wagin,-33.29958372,117.3499841,1037.5,Australia
Roebourne,-20.7829317,117.1333048,11281.5,Australia
Pannawonica,-21.63657469,116.3250337,686,Australia
Tom Price,-22.69346108,117.7930578,1822,Australia
Kalbarri,-27.66618081,114.1666642,1537,Australia
Mount Magnet,-28.06620807,117.8166739,424,Australia
Morawa,-29.21626707,116.0000406,259,Australia
Port Denison,-29.28282632,114.9166442,1213,Australia
Merredin,-31.48284707,118.2666723,2054,Australia
Mount Barker,-34.632784,117.6666056,1771.5,Australia
Katanning,-33.69955931,117.5500752,3140,Australia
Narrogin,-32.93288776,117.1666361,3995,Australia
Gingin,-31.34957355,115.9000468,1446,Australia
Bunbury,-33.34428384,115.6502429,26683.5,Australia
Kwinana,-32.23939004,115.7702356,18817.5,Australia
Southern Cross,-31.216145,119.3166857,187,Australia
Kaltukatjara,-25.78841429,128.9973352,355,Australia
Queanbeyan,-35.3546004,149.2113468,32408,Australia
Tweed Heads,-28.1825834,153.5466377,33065,Australia
Ivanhoe,-32.89960814,144.3000187,265,Australia
Wilcannia,-31.56620115,143.3833304,442,Australia
Merimbula,-36.89962238,149.9000386,3607.5,Australia
Echuca,-36.12959186,144.750017,13460,Australia
Deniliquin,-35.5295768,144.9500048,6019.5,Australia
Nowra,-34.88284625,150.6000476,61036.5,Australia
Ulladulla,-35.34953611,150.4700297,6811,Australia
Batemans Bay,-35.68961871,150.2073067,5604,Australia
Cooma,-36.23955931,149.1200345,5661.5,Australia
Tumut,-35.30959023,148.2200378,4873,Australia
Leeton,-34.54493406,146.3973067,6277,Australia
Young,-34.30959959,148.2900077,6422,Australia
Cowra,-33.82962889,148.6800097,5729.5,Australia
Forbes,-33.38960407,148.0199983,4076.5,Australia
Goulburn,-34.74957273,149.7101794,16444,Australia
Kiama,-34.70957518,150.8400329,10379,Australia
Katoomba,-33.70694904,150.320013,20334.5,Australia
Richmond,-33.59951373,150.7399873,9720,Australia
Lithgow,-33.49610919,150.152788,10338,Australia
Parkes,-33.12956826,148.170015,7160,Australia
Bathurst,-33.41962807,149.5700329,6111,Australia
Maitland,-32.72096271,151.555028,10026.5,Australia
Singleton,-32.56949909,151.1600134,8340.5,Australia
Mudgee,-32.58960122,149.5801098,5391,Australia
Muswellbrook,-32.26956907,150.890004,8171,Australia
Taree,-31.89760211,152.4618461,30131.5,Australia
Kempsey,-31.08736733,152.8220308,10681,Australia
Gunnedah,-30.9870117,150.2622904,6204,Australia
Coffs Harbour,-30.3070532,153.1122973,48961,Australia
Narrabri,-30.33190957,149.7874357,6105.5,Australia
Inverell,-29.7667761,151.1125744,6845.5,Australia
Yamba,-29.42299136,153.353312,1806,Australia
Ballina,-28.86135333,153.5679801,13997.5,Australia
Wagga Wagga,-35.12215981,147.3399882,45549,Australia
Scone,-32.07960651,150.8501098,4624,Australia
Byron Bay,-28.65650796,153.6128869,5244.5,Australia
Berri,-34.28293455,140.6000378,4523,Australia
Peterborough,-32.96616738,138.8333239,1351,Australia
Wallaroo,-33.9328784,137.6332938,2442,Australia
Clare,-33.8328845,138.6000048,2729,Australia
Meningie,-35.69954059,139.3333451,850,Australia
Kingston South East,-36.83280475,139.8500577,206,Australia
Bordertown,-36.31619546,140.7666426,1976,Australia
Penola,-37.38295205,140.8166654,1513,Australia
Kingoonya,-30.89957518,135.2999996,50,Australia
Kimba,-33.14961871,136.4333671,636,Australia
Streaky Bay,-32.81187176,134.2149296,614.5,Australia
Cowell,-33.68286782,136.9166451,537,Australia
Tumby Bay,-34.38292845,136.0833109,1791,Australia
Andamooka,-30.43097329,137.1655704,528,Australia
Woomera,-31.14958576,136.8000114,450,Australia
Port Pirie,-33.19106321,137.9900162,12417,Australia
Gawler,-34.60735919,138.7263537,15542.5,Australia
Murray Bridge,-35.12960122,139.2600162,14185.5,Australia
Victor Harbor,-35.55960081,138.6173164,7489,Australia
Hamilton,-37.73119953,142.0234135,6992.5,Australia
Ouyen,-35.06619424,142.3166772,912,Australia
Colac,-38.33953449,143.5800109,7450,Australia
Stawell,-37.05961261,142.7600093,4596,Australia
Horsham,-36.70960814,142.1900183,11985.5,Australia
Ararat,-37.27954751,142.9099743,5464,Australia
Maryborough,-37.04958738,143.729976,5838.5,Australia
Bairnsdale,-37.82959145,147.6099975,9427,Australia
Sale,-38.10957436,147.0600052,17701.5,Australia
Traralgon,-38.19959471,146.5300118,16982.5,Australia
Wonthaggi,-38.60949217,145.5900175,4471.5,Australia
Cranbourne,-38.09960081,145.2833695,249955,Australia
Ballarat,-37.55958209,143.8400468,73404,Australia
Melton,-37.68954832,144.570028,29750,Australia
Seymour,-37.03423948,145.1273067,3693,Australia
Shepparton,-36.37458982,145.3913732,33430.5,Australia
Cobram,-35.91963051,145.6500138,4659,Australia
Swan Hill,-35.33961424,143.5400134,9073,Australia
Sunbury,-37.56960732,144.7100195,18677.5,Australia
Proserpine,-20.41623574,148.5834781,3976,Australia
Theodore,-24.94949909,150.0833349,246,Australia
Eidsvold,-25.36621784,151.1333483,459,Australia
Barcaldine,-23.56617267,145.2833695,1068,Australia
Winton,-22.39962889,143.0332743,1157,Australia
Longreach,-23.44959064,144.2500476,2894,Australia
Caboolture,-27.08296059,152.9499816,26495.5,Australia
Warwick,-28.22924721,152.0203226,10024,Australia
Kingaroy,-26.53896279,151.840592,7494.5,Australia
Dalby,-27.19385822,151.2657434,9818.5,Australia
Bongaree,-27.07872313,153.1508996,10327.5,Australia
Gympie,-26.18859658,152.6709289,11338,Australia
Ingham,-18.64957355,146.1666231,5996.5,Australia
Birdsville,-25.89962197,139.3666247,283,Australia
Bedourie,-24.34958738,139.4666186,142,Australia
Boulia,-22.89959837,139.9000288,402.5,Australia
Richmond,-20.71626911,143.1333199,296,Australia
Burketown,-17.71609048,139.5666125,186.5,Australia
Hervey Bay,-25.28870319,152.8409444,25114,Australia
Biloela,-24.39356403,150.4960746,4366.5,Australia
Yeppoon,-23.13291746,150.7567305,6450.5,Australia
Emerald,-23.51222247,148.1673278,7489,Australia
Moranbah,-22.00156533,148.0380334,7357,Australia
Charters Towers,-20.08090737,146.2587105,8369.5,Australia
Ayr,-19.57024087,147.3994677,7166,Australia
Atherton,-17.27027789,145.469353,6132.5,Australia
Port Douglas,-16.48458812,145.4587219,2004.5,Australia
Smithton,-40.83292234,145.1166613,3351,Australia
Scottsdale,-41.14949217,147.5166699,1683.5,Australia
Bicheno,-41.87838825,148.2886124,177,Australia
Oatlands,-42.29960285,147.3666015,1157,Australia
Queenstown,-42.08292356,145.5500199,1658,Australia
Kingston,-42.99113686,147.3084139,12652,Australia
Tennant Creek,-19.65002928,134.200015,3490.5,Australia
Yulara,-25.24054075,130.9888932,930,Australia
Erldunda,-25.23330605,133.1999727,10,Australia
Norseman,-32.20001259,121.7666137,1004,Australia
Halls Creek,-18.26670286,127.7667126,1209,Australia
Kununurra,-15.76659707,128.7333203,5229.5,Australia
Derby,-17.29999184,123.9666345,3199,Australia
Onslow,-21.65759354,115.0962959,573,Australia
Exmouth,-21.93109987,114.1233469,1085,Australia
Carnarvon,-24.89983803,113.6501066,7392,Australia
Newman,-23.36659829,119.7333011,2678,Australia
Meekatharra,-26.59999266,118.4832999,654,Australia
Three Springs,-29.53330198,115.7499784,190,Australia
Manjimup,-34.23332518,116.1500057,4016.5,Australia
Northam,-31.65658323,116.6533858,5330,Australia
Esperance,-33.857307,121.8888973,7205,Australia
Leonara,-28.88150714,121.3280358,227,Australia
Laverton,-28.62700071,122.4040425,316,Australia
Wyndham,-15.37395953,128.3600614,734.5,Australia
Albury,-36.06003538,146.9200138,68534,Australia
Forster-Tuncurry,-32.19313963,152.5266483,13275.5,Australia
Port Macquarie,-31.44501992,152.9186657,42070,Australia
Tamworth,-31.10261188,150.9171342,35080,Australia
Grafton,-29.71199909,152.9376827,7871.5,Australia
Moree,-29.469895,149.8300687,8062,Australia
Goondiwindi,-28.55480874,150.325284,4251,Australia
Lismore,-28.81665322,153.2931132,28065.5,Australia
Wollongong,-34.41538125,150.890004,201319.5,Australia
Ceduna,-32.09913464,133.6622674,1252.5,Australia
Mount Gambier,-37.83134845,140.7650406,21818.5,Australia
Port Augusta,-32.49002073,137.7700297,11186.5,Australia
Warrnambool,-38.37999713,142.4700012,29882,Australia
Mildura,-34.18500771,142.1513643,33324.5,Australia
Geelong,-38.16749505,144.3956335,149336,Australia
Camooweal,-19.91673134,138.1166752,187,Australia
Quilpie,-26.61663247,144.2500476,560,Australia
Charleville,-26.40000486,146.2500288,1900,Australia
Hughenden,-20.85000771,144.2000248,421,Australia
Caloundra,-26.80003213,153.1333296,33737,Australia
Roma,-26.55937498,148.7907006,4560.5,Australia
Toowoomba,-27.56453327,151.9555204,86711,Australia
Georgetown,-18.30003416,143.5332955,818,Australia
Thargomindah,-27.99995888,143.816689,203,Australia
Weipa,-12.66663125,141.8666272,2830,Australia
Karumba,-17.48333982,140.8334086,173,Australia
Cloncurry,-20.69999103,140.4999922,1202,Australia
Maryborough,-25.54910073,152.7209,18920.5,Australia
Bundaberg,-24.87906411,152.3508968,46062,Australia
Gladstone,-23.8533386,151.2467264,29055,Australia
Bowen,-20.00132566,148.208669,10983,Australia
Innisfail,-17.53134723,146.0386722,9707,Australia
Mackay,-21.14389158,149.1500069,66053.5,Australia
Burnie,-41.06660317,145.9166642,18490.5,Australia
Launceston,-41.44983559,147.1301818,65106.5,Australia
Katherine,-14.46662474,132.266593,8171.5,Australia
Busselton,-33.65640949,115.3486592,9595,Australia
Mandurah,-32.52348259,115.7470567,52866,Australia
Broome,-17.96177069,122.2307681,11890.5,Australia
Kalgoorlie,-30.73539915,121.4600175,32058,Australia
Albany,-35.0169466,117.8916048,25179,Australia
Port Hedland,-20.31040241,118.6060315,8997,Australia
Karratha,-20.73037677,116.8700134,16636,Australia
Geraldton,-28.76663043,114.5999711,27065,Australia
Griffith,-34.29001422,146.0400158,11664.5,Australia
Orange,-33.27999835,149.0999841,36708,Australia
Dubbo,-32.25995726,148.5973274,30467.5,Australia
Armidale,-30.51231199,151.667476,21793.5,Australia
Broken Hill,-31.94995034,141.4331136,17232.5,Australia
Port Lincoln,-34.73324298,135.86658,12438.5,Australia
Whyalla,-33.02502684,137.5614119,21102,Australia
Portland,-38.33999957,141.5900032,10324.5,Australia
Bendigo,-36.75999266,144.2800199,68790,Australia
Wangaratta,-36.36001707,146.3,11369.5,Australia
Windorah,-25.43324217,142.6501969,158,Australia
Mount Isa,-20.72386554,139.490028,27596,Australia
Rockhampton,-23.36391111,150.5200008,59024.5,Australia
Cairns,-16.88783986,145.7633309,132107,Australia
Gold Coast,-28.08150429,153.4482458,429954.5,Australia
Devonport,-41.19266757,146.3311017,17932.5,Australia
Darwin,-12.42535398,130.8500386,82973,Australia
Alice Springs,-23.70099648,133.8800345,26949,Australia
Canberra,-35.28302855,149.1290262,280866,Australia
Newcastle,-32.84534788,151.8150122,816285.5,Australia
Adelaide,-34.93498777,138.6000048,990677,Australia
Townsville,-19.24995034,146.7699971,129212,Australia
Brisbane,-27.45503091,153.0350927,1393176.5,Australia
Hobart,-42.85000853,147.2950297,64285,Australia
Perth,-31.95501463,115.8399987,1206108,Australia
Melbourne,-37.82003131,144.9750162,2131812.5,Australia
Sydney,-33.92001097,151.1851798,4135711,Australia
Bregenz,47.51669707,9.766701588,26928,Austria
Eisenstadt,47.83329908,16.53329747,13165,Austria
Wiener Neustadt,47.81598187,16.24995357,60621.5,Austria
Graz,47.0777582,15.41000484,242780,Austria
Klagenfurt,46.62034426,14.3100203,88588,Austria
Linz,48.31923281,14.28878129,265161.5,Austria
Passau,48.56704714,13.46660925,50000,Austria
Salzburg,47.81047833,13.0400203,178274,Austria
Innsbruck,47.28040733,11.4099906,133840.5,Austria
Vienna,48.20001528,16.36663896,2065500,Austria
Gadabay,40.5655556,45.8161111,8657,Azerbaijan
Goranboy,40.6102778,46.7897222,7333,Azerbaijan
Tovuz,40.9922222,45.6288889,12626,Azerbaijan
Agdam,40.9052778,45.5563889,0,Azerbaijan
Qabala,40.9813889,47.8458333,11867,Azerbaijan
Oguz,41.0708333,47.4583333,6876,Azerbaijan
Ganca,40.68499595,46.35002844,301699.5,Azerbaijan
Yevlax,40.61719647,47.15003129,50014,Azerbaijan
Sumqayt,40.58001528,49.62998328,272154.5,Azerbaijan
Ali Bayramli,39.93230288,48.92025915,70452,Azerbaijan
Goycay,40.65342165,47.74058956,35031.5,Azerbaijan
Lankaran,38.7540027,48.85106441,60180,Azerbaijan
Saki,41.19232932,47.17054683,63579.5,Azerbaijan
Stepanakert,39.81564333,46.75196773,57473,Azerbaijan
Kapan,39.20152061,46.41498572,37724,Azerbaijan
Naxcivan,39.2092204,45.41220455,79771,Azerbaijan
Baku,40.39527203,49.86221716,2007150,Azerbaijan
Manama,26.23613629,50.58305172,360697,Bahrain
Tangail,24.24997845,89.92003048,180144,Bangladesh
Sylhet,24.90355613,91.87360632,237000,Bangladesh
Mymensingh,24.75041302,90.3800024,330126,Bangladesh
Jamalpur,24.90042971,89.95000281,167900,Bangladesh
Narayanganj,23.62040448,90.49999508,223622,Bangladesh
Jessore,23.17043194,89.19997107,243987,Bangladesh
Barisal,22.70040895,90.37498979,202242,Bangladesh
Comilla,23.47041363,91.16998002,389411,Bangladesh
Pabna,24.00038129,89.24999385,137888,Bangladesh
Nawabganj,24.58039756,88.34999711,142361,Bangladesh
Saidpur,25.80042645,88.99998328,232209,Bangladesh
Rangpur,25.75001609,89.28001786,285564,Bangladesh
Khulna,22.839987,89.56000077,1447669.5,Bangladesh
Rajshahi,24.37498374,88.6050203,755066.5,Bangladesh
Dhaka,23.72305971,90.40857947,9899167,Bangladesh
Chittagong,22.32999229,91.79996741,4224611,Bangladesh
Bridgetown,13.10200258,-59.61652674,143865,Barbados
Baranavichy,53.13684572,26.01344031,156514.5,Belarus
Polatsk,55.48938946,28.78598425,79216,Belarus
Maladzyechna,54.31878908,26.86532629,96055,Belarus
Pinsk,52.12786338,26.09405554,120838.5,Belarus
Mazyr,52.04595624,29.27215613,100936,Belarus
Mahilyow,53.89850466,30.32465002,343527,Belarus
Babruysk,53.12656211,29.19278113,212821.5,Belarus
Orsha,54.51531455,30.42154333,130276.5,Belarus
Lida,53.88847943,25.28464758,99126,Belarus
Hrodna,53.67787213,23.83409013,285867,Belarus
Barysaw,54.22600405,28.49215206,127694.5,Belarus
Homyel,52.43001548,31.00000932,472337.5,Belarus
Vitsyebsk,55.18871014,30.18533036,333318.5,Belarus
Brest,52.09998395,23.69998979,266775,Belarus
Minsk,53.89997744,27.56662716,1691069,Belarus
Mons,50.44599911,3.939003561,91277,Belgium
Hasselt,50.96400317,5.483997561,69222,Belgium
Arlon,49.68330313,5.816700472,26179,Belgium
Gent,51.02999758,3.700021931,337914.5,Belgium
Liege,50.62999615,5.580010537,472803,Belgium
Brugge,51.22037355,3.230024779,131589,Belgium
Namur,50.47039349,4.870028034,97155.5,Belgium
Charleroi,50.42039654,4.450001992,272749.5,Belgium
Antwerpen,51.22037355,4.415017048,689902.5,Belgium
Brussels,50.83331708,4.333316608,1381011,Belgium
El Cayo,17.15599807,-89.06100252,13451,Belize
Corozal,18.39799811,-88.3880005,8724,Belize
Dangriga,16.97003522,-88.22000045,8506,Belize
Belize City,17.49871096,-88.18837447,62244.5,Belize
Orange Walk,18.09043194,-88.5599797,18066.5,Belize
Punta Gorda,16.1003467,-88.81001612,6387,Belize
Belmopan,17.25203351,-88.767073,14300.5,Belize
Lokossa,6.615000092,1.715004457,86971,Benin
Kandi,11.13036582,2.940016641,73483,Benin
Ouidah,6.360372741,2.089991006,83503,Benin
Abomey,7.190399596,1.98999711,82154,Benin
Natitingou,10.32041526,1.389982054,65356.5,Benin
Djougou,9.700427265,1.680041869,152708.5,Benin
Parakou,9.340009988,2.620036172,176303,Benin
Porto-Novo,6.483310973,2.616625528,267084,Benin
Cotonou,6.400008564,2.519990599,726292,Benin
Hamilton,32.29419029,-64.78393742,32910,Bermuda
Paro,27.3833011,89.51670065,15000,Bhutan
Punakha,27.63330305,89.83330266,5000,Bhutan
Wangdue Prodrang,27.43329603,89.91669667,5000,Bhutan
Thimphu,27.47298586,89.63901404,88930.5,Bhutan
Punata,-17.55000242,-65.83997115,20758.5,Bolivia
Cliza,-17.58999998,-65.9299915,12235,Bolivia
Quillacollo,-17.39998574,-66.27999597,227052,Bolivia
Puerto Villarroel,-16.87004393,-64.78001001,1778,Bolivia
Tarabuco,-19.18003213,-64.91994979,2364,Bolivia
Guayaramerin,-10.82999917,-65.4099974,36008,Bolivia
Santa Ana,-13.7600012,-65.57996118,234478,Bolivia
Baures,-13.58001219,-63.58005742,2422,Bolivia
Sica Sica,-17.33001585,-67.72998499,1006,Bolivia
Rurrenabaque,-14.46001015,-67.55999536,11749,Bolivia
Sorata,-15.79000649,-68.66005742,2190,Bolivia
Achacachi,-16.08332192,-68.66656865,8447,Bolivia
Viacha,-16.65000568,-68.2999502,34776,Bolivia
Quime,-16.98001137,-67.22001612,3224.5,Bolivia
Llallagua,-18.42002684,-66.63999984,28069,Bolivia
Uncia,-18.46999795,-66.57002995,4723,Bolivia
Uyuni,-20.46000568,-66.82998824,11616,Bolivia
Villa Martin,-20.76655027,-67.7833409,10,Bolivia
Betanzos,-19.55995726,-65.45002079,4629.5,Bolivia
Portachuelo,-17.36003986,-63.40001673,9982,Bolivia
Samaipata,-18.18004148,-63.77001998,2926,Bolivia
Cuevo,-20.45003213,-63.52998295,953,Bolivia
San Carlos,-17.39998574,-63.72999658,5266.5,Bolivia
San Lorenzo,-21.47994342,-64.77001062,3000,Bolivia
Entre Rios,-21.53001788,-64.18999435,2685,Bolivia
Aiquile,-18.18954995,-65.18001144,5844,Bolivia
Padilla,-19.29961139,-64.30996118,2276.5,Bolivia
Camargo,-20.63958128,-65.20998377,4715,Bolivia
Reyes,-14.30958006,-67.37000696,7376,Bolivia
San Borja,-14.81962645,-66.84996118,19640,Bolivia
Magdalena,-13.2600834,-64.05276758,3445,Bolivia
San Ramon,-13.28959064,-64.70998845,5439.5,Bolivia
Puerto Heath,-12.49961302,-68.66656865,10,Bolivia
Charana,-17.5996118,-69.46659733,197,Bolivia
Puerto Acosta,-15.49958494,-69.16666732,1123,Bolivia
Apolo,-14.71958087,-68.41999455,4189,Bolivia
Coroico,-16.18962034,-67.72001144,2361,Bolivia
Coro Coro,-17.1696122,-68.44996688,1884,Bolivia
Sabaya,-19.01626951,-68.38327844,573,Bolivia
Challapata,-18.89958413,-66.77999129,8565,Bolivia
Llica,-19.84960366,-68.25003076,553,Bolivia
Potosi,-19.56956907,-65.75002832,160576,Bolivia
Villazon,-22.07959674,-65.5999858,33734,Bolivia
Tupiza,-21.43958413,-65.72000431,25499.5,Bolivia
Montero,-17.34960122,-63.26002527,83821,Bolivia
Piso Firme,-13.68295164,-61.86662195,72,Bolivia
Robore,-18.3295414,-59.75998051,9959,Bolivia
Puerto Quijarro,-17.77960081,-57.77002446,10392,Bolivia
San Ignacio,-16.36960936,-60.96001062,24480,Bolivia
Ascension,-15.69957273,-63.07998458,12085,Bolivia
San Javier,-16.28961424,-62.50001998,4210,Bolivia
San Rafael,-16.77950682,-60.6799502,1201,Bolivia
Vallegrande,-18.48958331,-64.10999923,6857.5,Bolivia
Puerto Suarez,-18.94955524,-57.8499679,17273,Bolivia
Charagua,-19.79958087,-63.2199502,3025,Bolivia
Villamontes,-21.24956989,-63.50001062,18761,Bolivia
Bermejo,-22.72958291,-64.34998458,36544,Bolivia
Cochabamba,-17.41001097,-66.16997685,804138,Bolivia
Oruro,-17.97995034,-67.12999577,227592.5,Bolivia
Camiri,-20.05000486,-63.51998356,19212.5,Bolivia
Cobija,-11.03334593,-68.73330876,35511,Bolivia
San Matias,-16.35999754,-58.42001062,6352,Bolivia
San José,-17.85003579,-60.77999577,9211,Bolivia
Trinidad,-14.83337238,-64.89997685,69333.5,Bolivia
Tarija,-21.51668537,-64.749986,155513,Bolivia
Sucre,-19.04097085,-65.25951563,223287,Bolivia
Riberalta,-10.98301308,-66.10000696,74014,Bolivia
La Paz,-16.49797361,-68.14998519,1201399.5,Bolivia
Santa Cruz,-17.75391762,-63.22599634,1859530.5,Bolivia
Zenica,44.21997398,17.91998083,151388,Bosnia and Herzegovina
Mostar,43.35049217,17.82003861,133792.5,Bosnia and Herzegovina
Tuzla,44.5504706,18.6800378,143410,Bosnia and Herzegovina
Prijedor,44.98039268,16.70000362,70602.5,Bosnia and Herzegovina
Banja Luka,44.78040489,17.17997432,221422,Bosnia and Herzegovina
Sarajevo,43.8500224,18.38300167,662816.5,Bosnia and Herzegovina
Mochudi,-24.377004,26.15200256,39700,Botswana
Ghanzi,-21.69961994,21.63996049,6306,Botswana
Lokhwabe,-24.16959837,21.83002641,1473,Botswana
Lehututu,-23.96961058,21.87002397,1942,Botswana
Tshabong,-26.00948606,22.40001745,9679,Botswana
Tsau,-20.15961058,22.45996212,1409,Botswana
Nokaneng,-19.66961465,22.26999955,1763,Botswana
Mohembo,-18.29956907,21.8000024,757,Botswana
Maun,-19.98959511,23.42000688,47059,Botswana
Kasane,-17.80957314,25.15003048,7774.5,Botswana
Nata,-20.20947833,26.19001868,2492.5,Botswana
Mopipi,-21.17954832,24.88002112,3301,Botswana
Palapye,-22.55961912,27.13001298,27179,Botswana
Lobatse,-25.2196118,25.68002397,50343.5,Botswana
Kanye,-24.96960122,25.33999304,45773.5,Botswana
Molepolole,-24.3999719,25.5100085,57713,Botswana
Francistown,-21.17003986,27.50001623,89179.5,Botswana
Mahalapye,-23.09999957,26.82000606,47607.5,Botswana
Serowe,-22.39001707,26.71003861,47996,Botswana
Gaborone,-24.64631346,25.91194779,183827,Botswana
Grajau,-5.809995505,-46.14998438,30217,Brazil
Presidente Dutra,-5.250029685,-44.51998051,30330,Brazil
Itapecuru Mirim,-3.400013409,-44.36001611,22347,Brazil
Sao Jose de Ribamar,-2.549987774,-44.06998214,41521,Brazil
Santa Ines,-3.659997539,-45.39003076,58511.5,Brazil
Rosario,-2.940041485,-44.26002222,6798,Brazil
Timon,-5.114999167,-42.84496647,203157,Brazil
Capanema,-1.190019105,-47.17999903,45831,Brazil
Portel,-1.949972718,-50.81998356,10855,Brazil
Itupiranga,-5.120011781,-49.30002466,21301,Brazil
Pimenta Bueno,-11.64002724,-61.20999536,25762,Brazil
Ponta Pora,-22.53000853,-55.7299681,75047,Brazil
Maracaju,-21.610013,-55.18002751,18156,Brazil
Jardim,-21.47994342,-56.15001998,21252.5,Brazil
Tres Lagoas,-20.79001137,-51.72000615,64217.5,Brazil
Guanhaes,-18.78000486,-42.95002466,16761.5,Brazil
Leopoldina,-21.53001788,-42.64004358,37412,Brazil
Nova Lima,-19.98003497,-43.8500214,60413.5,Brazil
Pouso Alegre,-22.22000161,-45.94002303,102517.5,Brazil
Itauna,-20.06003009,-44.57002914,70233,Brazil
Caratinga,-19.79002073,-42.13999658,47517.5,Brazil
Diamantina,-18.23998615,-43.60998438,25184.5,Brazil
Nanuque,-17.83995888,-40.35002832,27210.5,Brazil
Barbacena,-21.22001097,-43.77000045,101628.5,Brazil
Pocos de Caldas,-21.78002846,-46.56998458,125498.5,Brazil
Guaxupe,-21.29003253,-46.7099502,43379.5,Brazil
Sao Joao del Rei,-21.1300423,-44.24999699,68731.5,Brazil
Muriae,-21.1300423,-42.38998132,76728.5,Brazil
Passos,-20.71001626,-46.60998214,85136.5,Brazil
Conselheiro Lafaiete,-20.6700187,-43.78999923,102926,Brazil
Formiga,-20.46000568,-45.43002832,46076.5,Brazil
Frutal,-20.03000608,-48.94002079,26797,Brazil
Iturama,-19.72997272,-50.2000214,21048.5,Brazil
Ituiutaba,-18.97001911,-49.45998906,63978,Brazil
Araguari,-18.64001341,-48.19998845,79910.5,Brazil
Almenara,-16.17003497,-40.70000696,22173.5,Brazil
Varzea Grande,-15.65001504,-56.14002059,242088,Brazil
Cáceres,-16.0500423,-57.51001449,85274,Brazil
Santana do Livramento,-30.88004148,-55.53000615,87312,Brazil
Canoas,-29.91999673,-51.17998743,466661,Brazil
Quarai,-30.38002033,-56.45994938,18462,Brazil
Santa Vitoria do Palmar,-33.52003538,-53.36998295,21826,Brazil
Sao Lourenco do Sul,-31.36998574,-51.98001611,21673,Brazil
Canela,-29.36003091,-50.81001001,47167,Brazil
Sao Gabriel,-30.32002399,-54.32002832,41849.5,Brazil
Rosario do Sul,-30.25000242,-54.92001754,28596.5,Brazil
Cachoeira do Sul,-30.02996417,-52.90998519,61871,Brazil
Osorio,-29.87999917,-50.26999129,30882,Brazil
Santa Cruz do Sul,-29.71003538,-52.44003972,109869,Brazil
Sao Luiz Gonzaga,-28.41001137,-54.95998926,27798.5,Brazil
Santo Angelo,-28.30004393,-54.28003076,65013,Brazil
Carazinho,-28.2900187,-52.80004358,49145,Brazil
Erechim,-27.63000731,-52.26999841,85365.5,Brazil
Guaira,-24.08996499,-54.2699797,28897.5,Brazil
Palmas,-26.47999998,-51.99998906,29794.5,Brazil
Arapongas,-23.41000649,-51.43004968,91203.5,Brazil
Paranagua,-25.52787556,-48.53445345,135071,Brazil
Sao Jose dos Pinhais,-25.57002968,-49.18000615,472180,Brazil
Guarapuava,-25.38001544,-51.48002079,123381.5,Brazil
Rio Negro,-26.10002317,-49.79002059,44301.5,Brazil
Apucarana,-23.54999795,-51.4700214,102577,Brazil
Lapa,-25.76004393,-49.72999841,19934.5,Brazil
Irati,-25.47003579,-50.65996749,41602,Brazil
Castro,-24.79002562,-50.00998132,38417.5,Brazil
Telemaco Borba,-24.32995034,-50.61999577,53793.5,Brazil
Jacarezinho,-23.15994424,-49.97998316,33551,Brazil
Concordia,-27.23003172,-52.03001306,46124.5,Brazil
Blumenau,-26.9200248,-49.0899858,286326,Brazil
Brusque,-27.12998615,-48.9300214,81163.5,Brazil
Ararangua,-28.94000486,-49.49998661,42198.5,Brazil
Jaragua do Sul,-26.47999998,-49.09998519,128803.5,Brazil
Tubarao,-28.48003294,-49.02001591,79760,Brazil
Laguna,-28.48003294,-48.77997888,32532,Brazil
Joacaba,-27.17003538,-51.4999679,31196,Brazil
Cacador,-26.77000812,-51.02002303,57155.5,Brazil
Canoinhas,-26.17996662,-50.4000092,40180,Brazil
Camocim,-2.89999225,-40.85002364,27794.5,Brazil
Russas,-4.940022767,-37.97999211,33613.5,Brazil
Sobral,-3.690021547,-40.35002832,148439.5,Brazil
Iguatu,-6.359987774,-39.29998906,56638,Brazil
Quixada,-4.969995098,-39.02000615,30723.5,Brazil
Caninde,-4.35003294,-39.30998845,32085,Brazil
Campo Maior,-4.820030091,-42.18001998,24089.5,Brazil
Barras,-4.250039043,-42.29998682,11951.5,Brazil
Rio Largo,-9.48000405,-35.83996769,110966,Brazil
Palmeira dos Indios,-9.416597067,-36.61663863,41095,Brazil
Santa Cruz Cabralia,-16.28000242,-39.0299797,9980.5,Brazil
Paulo Afonso,-9.330659161,-38.26565943,85350,Brazil
Brumado,-14.20999957,-41.67002527,29300,Brazil
Jaguaquara,-13.5299894,-39.96999984,30554.5,Brazil
Itapetinga,-15.24998777,-40.24998275,43224,Brazil
Ubaitaba,-14.30001992,-39.33001306,27411.5,Brazil
Cachoeiro de Itapemirim,-20.85000771,-41.12998071,174808.5,Brazil
Barra Mansa,-22.56003253,-44.1699502,166719,Brazil
Nova Iguacu,-22.74002155,-43.46996708,844583,Brazil
Duque de Caxias,-22.76999388,-43.30997685,842890,Brazil
Niteroi,-22.90001178,-43.09998967,993920,Brazil
Cabo Frio,-22.88998655,-42.03997685,184980,Brazil
Macae,-22.37999184,-41.78999211,133083,Brazil
Miracema,-21.41002521,-42.19996708,22564.5,Brazil
Apodi,-5.650005271,-37.80000309,8586,Brazil
Santa Cruz,-6.219996319,-36.02998194,22003.5,Brazil
Morrinhos,-17.73004311,-49.10998458,27841,Brazil
Ceres,-15.30331785,-49.60519983,18658.5,Brazil
Catalao,-18.18004148,-47.9500037,53646.5,Brazil
Cristalina,-16.76999835,-47.61002446,25627.5,Brazil
Trindade,-16.65000568,-49.49998661,93113,Brazil
Ipora,-16.45001788,-51.12999048,23354,Brazil
Inhumas,-16.35999754,-49.49998661,36122,Brazil
Itaberai,-16.01996662,-49.80996769,18710.5,Brazil
Santo Andre,-23.65283405,-46.52781661,662373,Brazil
Pindamonhangaba,-22.91995888,-45.47002588,123985,Brazil
Rio Claro,-22.40996417,-47.56002751,177710,Brazil
Ourinhos,-22.97003335,-49.86998987,96994,Brazil
Itanhaem,-24.17998533,-46.80002222,82722,Brazil
Jaboticabal,-21.25003497,-48.32998051,60780.5,Brazil
Braganca Paulista,-22.95003457,-46.5499858,126386,Brazil
Jundiai,-23.19999347,-46.8799915,413568.5,Brazil
Sao Jose dos Campos,-23.19999347,-45.87994918,695322.5,Brazil
Guaratingueta,-22.81996499,-45.18999129,154730,Brazil
Pirassununga,-21.99004148,-47.42998377,51698,Brazil
Americana,-22.74994342,-47.32998987,337747,Brazil
Piracicaba,-22.70999754,-47.63999679,329530,Brazil
Sao Joao da Boa Vista,-21.98001626,-46.78999699,68666,Brazil
Sao Carlos,-22.02001382,-47.88998153,175219,Brazil
Tupa,-21.92999347,-50.5199502,51798.5,Brazil
Penapolis,-21.41002521,-50.08000289,44795,Brazil
Presidente Prudente,-22.12000771,-51.39000045,199722,Brazil
Registro,-24.49004393,-47.83998458,49485,Brazil
Tatui,-23.35001015,-47.8600092,81936,Brazil
Avare,-23.1100248,-48.9300214,70709,Brazil
Garca,-22.22000161,-49.65997685,38460,Brazil
Catanduva,-21.14001585,-48.97996668,105238,Brazil
Batatais,-20.89000527,-47.58999984,44061,Brazil
Barretos,-20.55002602,-48.58001693,97562,Brazil
Marilia,-22.21002806,-49.95001083,191083.5,Brazil
Itu,-23.26004148,-47.30001754,228878,Brazil
Itapetininga,-23.58999551,-48.03999821,120889,Brazil
Jaboatao,-8.110010153,-35.02004358,681214,Brazil
Olinda,-7.999991029,-34.8499506,659554,Brazil
Cabo de Santo Agostinho,-8.289999167,-35.02999129,144662,Brazil
Carpina,-7.840000795,-35.26000309,118134,Brazil
Arcoverde,-8.420017071,-37.06999597,53066,Brazil
Manacapuru,-3.289580873,-60.6199797,55780.5,Brazil
Maues,-3.389626446,-57.72002751,27518,Brazil
Pedreiras,-4.569606101,-44.67002303,13638,Brazil
Codo,-4.479585756,-43.8799679,83288,Brazil
Coroata,-4.12958128,-44.15000309,34129,Brazil
Chapadinha,-3.739527569,-43.35999964,29807.5,Brazil
Pinheiro,-2.519602032,-45.0899974,24912,Brazil
Barra do Corda,-5.509600404,-45.25996118,48901,Brazil
Viana,-3.209585756,-45.00000289,15808.5,Brazil
Colinas,-6.039542217,-44.2399976,13562.5,Brazil
Viseu,-1.196478659,-46.14001083,9992.5,Brazil
Capitao Poco,-1.74962319,-47.09000452,32704,Brazil
Castanhal,-1.28959959,-47.93003076,125314.5,Brazil
Salinopolis,-0.609486065,-47.33998926,32384.5,Brazil
Alenquer,-1.939585756,-54.78999964,26290,Brazil
Oriximina,-1.759596742,-55.86998539,35300,Brazil
Xinguara,-7.100614401,-49.94804712,4047,Brazil
Jacundá,-4.599578431,-49.38996749,51375,Brazil
Uruara,-3.82959959,-54.02999435,10,Brazil
Altamira,-3.199612204,-52.21000208,56769,Brazil
Paragominas,-2.959575176,-47.49000594,38095.5,Brazil
Cameta,-2.239619121,-49.509986,22705,Brazil
Rolim de Moura,-11.73020262,-61.78063237,24516,Brazil
Ariquemes,-9.939614239,-63.07998458,58096,Brazil
Abuna,-9.69539142,-65.35971623,1929,Brazil
Tocantinopolis,-6.319576804,-47.41998438,8750,Brazil
Gurupi,-11.71960895,-49.05998763,45595.5,Brazil
Aquidauana,-20.46961749,-55.79001611,38053,Brazil
Paranaiba,-19.6795882,-51.20001205,25278.5,Brazil
Sete Lagoas,-19.44962807,-44.24999699,195032,Brazil
Divinopolis,-20.14953367,-44.89998316,181457,Brazil
Ipatinga,-19.4796004,-42.51999923,318320,Brazil
Araxa,-19.5795943,-46.95001306,70159.5,Brazil
Lavras,-21.24956989,-45.0099506,70436,Brazil
Uba,-21.11960366,-42.95002466,81698.5,Brazil
Campo Belo,-20.88959186,-45.2799858,42042.5,Brazil
Ponte Nova,-20.40962116,-42.8999502,40377,Brazil
Curvelo,-18.75959267,-44.429986,45937,Brazil
Paracatu,-17.19958453,-46.86999211,51673.5,Brazil
Bocaiuva,-17.10961587,-43.81004968,22528.5,Brazil
Aracuai,-16.85960529,-42.06994918,15301.5,Brazil
Janauba,-15.79961831,-43.30997685,38641,Brazil
Juina,-11.3995768,-59.50002222,980,Brazil
Barra do Garcas,-15.87961342,-52.25999903,41214.5,Brazil
Pontes e Lacerda,-15.21960203,-59.3499797,22694.5,Brazil
Barra do Bugres,-15.06958535,-57.19000818,22386,Brazil
Rondonopolis,-16.4694999,-54.63998295,146794,Brazil
Uruguaiana,-29.76961831,-57.08998845,97736.5,Brazil
Sao Borja,-28.65960854,-56.00997685,48450.5,Brazil
Novo Hamburgo,-29.70962197,-51.13998987,557017,Brazil
Rio Grande,-32.04947915,-52.12000757,143150,Brazil
Camaqua,-30.83963051,-51.81000065,45112.5,Brazil
Bento Goncalves,-29.1694999,-51.51996668,92561.5,Brazil
Vacaria,-28.49961831,-50.94000208,47275.5,Brazil
Ijui,-28.38954751,-53.91994938,59047,Brazil
Santa Rosa,-27.86952757,-54.4599681,59119,Brazil
Maringa,-23.4095414,-51.92996749,320029.5,Brazil
Cascavel,-24.95957599,-53.46002914,229300,Brazil
Campo Murao,-24.04960569,-52.41998926,74173,Brazil
Foz do Iguacu,-25.52346922,-54.52998967,366989,Brazil
Sao Francisco do Sul,-26.23960122,-48.59998987,24354.5,Brazil
Porto Uniao,-26.23960122,-51.07996769,50242.5,Brazil
Itajai,-26.89961261,-48.68001083,241421,Brazil
Imbituba,-28.22960895,-48.66001205,28380,Brazil
Lajes,-27.80958291,-50.30998885,139972,Brazil
Granja,-3.119513734,-40.83999841,17233,Brazil
Crato,-7.229598776,-39.42000757,164149.5,Brazil
Itapipoca,-3.499542217,-39.58002364,31041,Brazil
Paracuru,-3.399548321,-39.04003076,19860,Brazil
Acarau,-2.889605287,-40.11999068,21024.5,Brazil
Taua,-5.999492982,-40.31003076,29188,Brazil
Crateus,-5.165590394,-40.66600387,40338,Brazil
Baturite,-4.329569073,-38.87998885,17797.5,Brazil
Ipu,-4.319595521,-40.72005742,14479.5,Brazil
Floriano,-6.769575176,-43.0299681,35923,Brazil
Piripiri,-4.269572735,-41.78999211,32639,Brazil
Penedo,-10.26961994,-36.58002588,37515.5,Brazil
Itabuna,-14.78960244,-39.28001611,213799,Brazil
Itamaraju,-17.0395943,-39.52994918,35055,Brazil
Guanambi,-14.22958494,-42.78998275,45730,Brazil
Porto Seguro,-16.42960569,-39.08002832,72031,Brazil
Valenca,-13.3596122,-39.08002832,56584.5,Brazil
Serrinha,-11.64958738,-39.01000676,52953.5,Brazil
Tucano,-10.96962889,-38.78999435,16199,Brazil
Senhor do Bonfim,-10.44960895,-40.19001225,43577,Brazil
Remanso,-9.599583314,-42.10999841,37945,Brazil
Itambe,-15.23960081,-40.62998539,15450.5,Brazil
Bom Jesus da Lapa,-13.2495414,-43.44002059,40691,Brazil
Itaberaba,-12.5196118,-40.2999797,31722,Brazil
Sao Mateus,-18.72962034,-39.85998071,63375.5,Brazil
Patos,-7.019585756,-37.29000838,85720.5,Brazil
Volta Redonda,-22.51956989,-44.09496769,352971,Brazil
Petropolis,-22.50949298,-43.19998356,279381,Brazil
Nova Cruz,-6.469593487,-35.43999211,22563.5,Brazil
Caico,-6.459619935,-37.10001998,42378,Brazil
Acu,-5.57962197,-36.91005742,33303,Brazil
Estancia,-11.26961058,-37.45002446,50690,Brazil
Caracarai,1.816231505,-61.12767481,11368,Brazil
Porto Santana,-0.039598369,-51.17998743,68849,Brazil
Rio Verde,-17.81959837,-50.92997685,48318,Brazil
Pires do Rio,-17.29952675,-48.27998356,21688,Brazil
Anapolis,-16.31958657,-48.9599679,278595.5,Brazil
Goianesia,-15.30962238,-49.1300092,39217.5,Brazil
Niquelandia,-14.46962197,-48.47002364,19785,Brazil
Itumbiara,-18.39961465,-49.21000431,65343.5,Brazil
Jatai,-17.87959471,-51.75000431,57135,Brazil
Mineiros,-17.56953611,-52.55998071,28247,Brazil
Formosa,-15.53947915,-47.33998926,62585.5,Brazil
Sao Jose do Rio Preto,-20.79962319,-49.38996749,358243.5,Brazil
Limeira,-22.54954222,-47.40001144,241071,Brazil
Taubate,-23.01953937,-45.55999455,327600.5,Brazil
Jau,-22.28960976,-48.57001754,102565.5,Brazil
Assis,-22.65961302,-50.41998214,79133,Brazil
Itapeva,-23.97958413,-48.88002446,55324,Brazil
Botucatu,-22.87959959,-48.44999903,94938.5,Brazil
Novo Horizonte,-21.45958291,-49.2200037,29554,Brazil
Andradina,-20.90959064,-51.37994938,45715,Brazil
Fernandopolis,-20.2696297,-50.26004358,55587,Brazil
Barreiros,-8.829604473,-35.20000676,35472.5,Brazil
Salgueiro,-8.059625632,-39.13002527,31565,Brazil
Goiana,-7.559604473,-34.99999312,57764.5,Brazil
Timbauba,-7.499608135,-35.32002527,51327.5,Brazil
Bacabal,-4.229988588,-44.79998926,57296.5,Brazil
Braganca,-1.05002765,-46.76999821,56864.5,Brazil
Obidos,-1.910026836,-55.52000676,26278.5,Brazil
Guajara-Miram,-10.80002684,-65.34994938,51852.5,Brazil
Porto Nacional,-10.70003294,-48.41994918,9129,Brazil
Dourados,-22.23002684,-54.80999841,144743.5,Brazil
Governador Valadares,-18.87002521,-41.97000696,201317,Brazil
Pirapora,-17.33001585,-44.92998132,55910,Brazil
Juiz de Fora,-21.77000324,-43.3749858,464764.5,Brazil
Santa Maria,-29.68331867,-53.80000838,239211.5,Brazil
Passo Fundo,-28.25002114,-52.41998926,164047,Brazil
Xapeco,-27.10001382,-52.64002751,154794,Brazil
Joinville,-26.31995807,-48.83994938,710737.5,Brazil
Juazeiro do Norte,-7.210013409,-39.32001367,222861,Brazil
Nova Vicosa,-17.88000812,-39.37001062,30250,Brazil
Alagoinhas,-12.13999673,-38.42999048,123379,Brazil
Juazeiro,-9.420007712,-40.49996749,95132,Brazil
Vitória,-20.32399331,-40.36599634,1008328,Brazil
Joao Pessoa,-7.10113513,-34.87607117,803441.5,Brazil
Campina Grande,-7.230012188,-35.88001693,383098.5,Brazil
Nova Friburgo,-22.25999917,-42.54004968,162676,Brazil
Aracatuba,-21.20998574,-50.45000615,166305,Brazil
Sena Madureira,-9.070003236,-68.66997929,23354,Brazil
Fonte Boa,-2.513814271,-66.09160954,13974.5,Brazil
Eirunepe,-6.66002114,-69.87380762,19462.5,Brazil
Manicore,-5.812165915,-61.29748356,17802,Brazil
Barcelos,-0.97499347,-62.92389592,9968.5,Brazil
Tonantins,-2.872707093,-67.80189274,2722,Brazil
Tefe,-3.36001585,-64.69998906,48189.5,Brazil
Coari,-4.079971905,-63.12998153,51897.5,Brazil
Sao Cabriel da Cachoeira,-0.133236065,-67.08330611,15231,Brazil
Novo Airao,-2.620784486,-60.94378422,9049,Brazil
Itacoatiara,-3.140029278,-58.43998356,51509,Brazil
Parintins,-2.610035788,-56.74000981,64428,Brazil
Natal,-6.983825664,-60.26994938,980588,Brazil
Crato,-7.46389972,-63.03996118,164149.5,Brazil
Imperatriz,-5.520039043,-47.49000594,203339.5,Brazil
Balsas,-7.520020326,-46.04999048,39761.5,Brazil
Breves,-1.680015036,-50.4900037,46818.5,Brazil
Jacareacanga,-6.266608461,-57.65000594,31661,Brazil
Tucurui,-3.679996319,-49.71999903,38472,Brazil
Itaituba,-4.258617331,-55.92502079,78532,Brazil
Conceicao do Araguaia,-8.250001608,-49.29002527,27115,Brazil
Abaetetuba,-1.724530694,-48.88488014,78735,Brazil
Principe da Beira,-12.41667234,-64.41664718,956,Brazil
Araguaina,-7.190014629,-48.21001367,50444,Brazil
Palmas,-10.23773558,-48.2877867,215793.5,Brazil
Teofilo Otoni,-17.87003457,-41.50000981,86865,Brazil
Uberaba,-19.7799955,-47.9500037,234807,Brazil
Januaria,-15.47999957,-44.36998967,25753,Brazil
Mato Grosso,-15.00002887,-59.95002059,1612,Brazil
Aripuana,-9.169997133,-60.64000431,26983,Brazil
Sinop,-11.84998859,-55.45998458,8961,Brazil
Jaguarao,-32.5600423,-53.36998295,26020,Brazil
Bage,-31.32001463,-54.10001591,102519,Brazil
Londrina,-23.30003904,-51.17998743,496035,Brazil
Criciuma,-28.68002073,-49.38996749,183085.5,Brazil
Aracati,-4.559994284,-37.77003076,28126.5,Brazil
Ico,-6.400037009,-38.84999068,15820,Brazil
Parnaiba,-2.910017478,-41.76996749,125699,Brazil
Picos,-7.079995505,-41.43998763,47694.5,Brazil
Arapiraca,-9.750013409,-36.66999455,177115,Brazil
Jequie,-13.85002155,-40.07999312,131524.5,Brazil
Ilheus,-14.7800423,-39.05000431,193060.5,Brazil
Canavieiras,-15.64004148,-38.96000981,26375,Brazil
Santa Maria da Vitoria,-13.38999795,-44.21002527,13176,Brazil
Irece,-11.29999632,-41.87001306,48079.5,Brazil
Xique-Xique,-10.82002562,-42.73001225,18633,Brazil
Linhares,-19.38999347,-40.05002079,86413,Brazil
Campos,-21.74995278,-41.32002079,378943,Brazil
Mossoro,-5.190033347,-37.34000533,202294,Brazil
Aracaju,-10.90002073,-37.11996708,587765.5,Brazil
Laranjal do Jari,-0.850039857,-52.48001144,43344,Brazil
Amapa,2.049989847,-50.80001062,1947,Brazil
Vila Velha,3.21666282,-51.21665186,742413.5,Brazil
Santos,-23.95372393,-46.33294266,1060201.5,Brazil
Bauru,-22.33002073,-49.08001225,307929.5,Brazil
Iguape,-24.72000405,-47.56994938,23602.5,Brazil
Franca,-20.53002724,-47.39001205,281149.5,Brazil
Garanhuns,-8.890014222,-36.50003076,107115,Brazil
Caruaru,-8.280025616,-35.98001083,238732.5,Brazil
Rio Branco,-9.966589336,-67.80000655,257642,Brazil
São Luís,-2.515984681,-44.26599085,524692.5,Brazil
Porto Velho,-8.750022767,-63.90001205,289534.5,Brazil
Alvorada,-12.47000242,-49.08200179,9273,Brazil
Corumba,-19.01601113,-57.65000594,70035.5,Brazil
Belo Horizonte,-19.91502602,-43.91500452,3974112,Brazil
Montes Claros,-16.72002724,-43.86002079,300022,Brazil
Uberlandia,-18.89999754,-48.27998356,484862,Brazil
Colider,-10.81728676,-55.45057947,27139,Brazil
Alta Floresta,-9.900030091,-55.90998295,40466,Brazil
Cuiaba,-15.56960651,-56.08498519,603143.5,Brazil
Pelotas,-31.75001422,-52.33002059,299270,Brazil
Caxias do Sul,-29.17999022,-51.17003972,377580.5,Brazil
Ponta Grossa,-25.09000731,-50.16004968,271321.5,Brazil
Teresina,-5.095000388,-42.7800092,746860.5,Brazil
Maceio,-9.619995505,-35.72997441,1000215.5,Brazil
Vitoria da Conquista,-14.85001219,-40.83999841,272320.5,Brazil
Barreiras,-12.13999673,-45.00000289,86245.5,Brazil
Vila Velha,-20.36760822,-40.31798893,742413.5,Brazil
Natal,-5.780023174,-35.24000431,925521.5,Brazil
Campinas,-22.90001178,-47.10002975,1911277,Brazil
Sorocaba,-23.49000161,-47.46998132,561071.5,Brazil
Ribeirao Preto,-21.17003986,-47.82998519,520774,Brazil
Petrolina,-9.380010153,-40.50996688,227817.5,Brazil
Cruzeiro do Sul,-7.629987774,-72.66996769,56862,Brazil
Manaus,-3.100031719,-60.00001754,1636622,Brazil
Caxias,-4.833000876,-43.35002608,134640,Brazil
Santarem,-2.433250713,-54.69997929,209737.5,Brazil
Maraba,-5.349971905,-49.11597905,166182,Brazil
Vilhena,-12.71660236,-60.11659957,63231,Brazil
Ji-Parana,-10.83330646,-61.96700342,65016,Brazil
Campo Grande,-20.45003213,-54.61662521,687723,Brazil
Florianopolis,-27.57998452,-48.52002059,568783,Brazil
Feira de Santana,-12.25001585,-38.9700092,449194.5,Brazil
Boa Vista,2.816092955,-60.66599756,202299.5,Brazil
Macapá,0.033007018,-51.0500212,433781.5,Brazil
Belem,-1.450003236,-48.48002303,1787368.5,Brazil
Brasilia,-15.78334023,-47.91605229,3139979.5,Brazil
Porto Alegre,-30.05001463,-51.20001205,2644870.5,Brazil
Curitiba,-25.420013,-49.3199976,2291430,Brazil
Fortaleza,-3.750017884,-38.57998132,2958717.5,Brazil
Salvador,-12.9699719,-38.47998743,3081422.5,Brazil
Goiania,-16.72002724,-49.30002466,1596597.5,Brazil
Recife,-8.075645326,-34.91560551,2564549,Brazil
Rio de Janeiro,-22.92502317,-43.22502079,6879087.5,Brazil
Sao Paulo,-23.55867959,-46.62501998,14433147.5,Brazil
Bandar Seri Begawan,4.883331115,114.9332841,218250,Brunei
Lovec,43.13799911,24.71900459,42211,Bulgaria
Montana,43.41400203,23.23700161,47445,Bulgaria
Razgrad,43.53399903,26.53599663,38285,Bulgaria
Sliven,42.67937034,26.33001013,87346.5,Bulgaria
Plovdiv,42.15397605,24.7539823,319089.5,Bulgaria
Pernik,42.60999473,23.02271846,80625,Bulgaria
Vratsa,43.20998395,23.56253048,68287,Bulgaria
Shumen,43.27000612,26.92935339,75487.5,Bulgaria
Khaskovo,41.94378216,25.5632869,72805,Bulgaria
Stara Zagora,42.42313275,25.6227148,128315.5,Bulgaria
Pleven,43.42376935,24.61337073,110445.5,Bulgaria
Turnovo,43.08624473,25.65552934,53115,Bulgaria
Kyustendil,42.28427818,22.6911108,49676.5,Bulgaria
Dobrich,43.58505149,27.83999548,73813,Bulgaria
Varna,43.21564252,27.89528926,245522,Bulgaria
Ruse,43.85369143,25.97333939,170254,Bulgaria
Burgas,42.51460004,27.47464311,174254,Bulgaria
Sofia,42.68334943,23.31665401,1029913.5,Bulgaria
Fada Ngourma,12.05499605,0.360999451,33910,Burkina Faso
Orodara,10.97399705,-4.907996452,18632,Burkina Faso
Solenzo,12.1833333,-4.0833333,10385,Burkina Faso
Nouna,12.7289971,-3.860000519,29048,Burkina Faso
Dedougou,12.455001,-3.464000439,45341,Burkina Faso
Gorom Gorom,14.45000398,-0.233297546,6691,Burkina Faso
Djibo,14.09900404,-1.627001421,22223,Burkina Faso
Tougan,13.06899899,-3.069998409,17590,Burkina Faso
Kombissiri,12.06399605,-1.333997543,30137,Burkina Faso
Ziniare,12.57699605,-1.293002442,12703,Burkina Faso
Yako,12.95399712,-2.262995501,22904,Burkina Faso
Reo,12.33349214,-2.466944513,37535,Burkina Faso
Leo,11.09400299,-2.097998529,26884,Burkina Faso
Sapouy,11.5544444,-1.7736111,3837,Burkina Faso
Boulsa,12.65699714,-0.568997532,17489,Burkina Faso
Zorgo,12.24299707,-0.611000429,23892,Burkina Faso
Koupela,12.17700004,-0.356003514,32052,Burkina Faso
Po,11.16900002,-1.134998478,17924,Burkina Faso
Manga,11.66200198,-1.064996408,15173,Burkina Faso
Diebougou,10.95200113,-3.248000411,12732,Burkina Faso
Gaoua,10.32499811,-3.174002407,28023,Burkina Faso
Bogande,12.96900003,-0.1379965,9854,Burkina Faso
Dori,14.0339971,-0.027998519,37806,Burkina Faso
Sebba,13.4364122,0.530443,3273,Burkina Faso
Diapaga,12.07700108,1.796004571,26013,Burkina Faso
Koudougou,12.25047833,-2.369995159,85339,Burkina Faso
Ouahigouya,13.5704236,-2.419992108,70300,Burkina Faso
Kaya,13.09037539,-1.090047446,39623,Burkina Faso
Tenkodogo,11.78040367,-0.369703818,37883,Burkina Faso
Banfora,10.63044802,-4.760004315,45903.5,Burkina Faso
Bobo Dioulasso,11.1799752,-4.289981325,346035,Burkina Faso
Ouagadougou,12.37031598,-1.524723756,992228.5,Burkina Faso
Cankuzo,-3.166703921,30.51669662,6585,Burundi
Karusi,-3.099995968,30.16299648,10705,Burundi
Rutana,-3.93100195,29.99300455,20893,Burundi
Ruyigi,-3.481001905,30.2439966,38458,Burundi
Bubanza,-3.083300984,29.36670351,12728,Burundi
Kayanza,-2.899997879,29.5667016,19443,Burundi
Makamba,-4.133303903,29.79999964,19642,Burundi
Ngozi,-2.912003884,29.82500157,21506,Burundi
Kirundo,-2.5847222,30.0972222,6083,Burundi
Muramvya,-3.260997006,29.61199862,18041,Burundi
Bururi,-3.950729147,29.61657955,20066.5,Burundi
Muyinga,-2.852346579,30.31726029,71076,Burundi
Gitega,-3.426006654,29.84359411,23167,Burundi
Bujumbura,-3.37608722,29.36000606,331700,Burundi
Kampong Spoe,11.4519961,104.5189986,33231,Cambodia
Kampong Thum,12.71199613,104.8889977,19951,Cambodia
Prey Veng,11.48399998,105.3240036,74000,Cambodia
Phnum Tbeng Meanchey,13.816701,104.9667037,24380,Cambodia
Stoeng Treng,13.52300408,105.9740016,29665,Cambodia
Kracheh,12.46899612,106.0239967,19975,Cambodia
Senmonorom,12.44999711,107.1999997,7944,Cambodia
Lumphat,13.50700214,106.9810026,19205,Cambodia
Svay Rieng,11.0799991,105.8010036,23956,Cambodia
Sisophon,13.58375612,102.9833158,36760,Cambodia
Krong Koh Kong,11.61753897,102.9849329,30285,Cambodia
Pursat,12.53369102,103.9166955,32961,Cambodia
Kampong Cham,12.00044191,105.4500386,72491.5,Cambodia
Kompong Chhnang,12.25047833,104.6666239,65817,Cambodia
Kampot,10.61708966,104.1833459,36398,Cambodia
Takeo,10.98375978,104.7833093,15264,Cambodia
Battambang,13.10001304,103.2000468,152608.5,Cambodia
Siem Reap,13.36663759,103.8500329,97199,Cambodia
Phnom Penh,11.55003013,104.9166345,1466000,Cambodia
Buea,4.155003087,9.231003513,90088,Cameroon
Bafang,5.170393696,10.17998816,86916.5,Cameroon
Foumban,5.730385355,10.89999589,64399,Cameroon
Bafoussam,5.490425841,10.40994828,290768,Cameroon
Kumba,4.640374368,9.439981647,131122,Cameroon
Eyumojok,5.750358296,8.983317015,5798,Cameroon
Limbe,4.030385761,9.190022744,142290,Cameroon
Kribi,2.940426452,9.910030476,31473,Cameroon
Nkongsamba,4.960406513,9.940002806,105069,Cameroon
Edea,3.800477314,10.11999182,109506.5,Cameroon
Wum,6.400421976,10.07002071,42601,Cameroon
Kumbo,6.220381286,10.68000932,89728,Cameroon
Bafia,4.750393493,11.23000159,41201,Cameroon
Mbalmayo,3.520391051,11.50001094,53501.5,Cameroon
Eseka,3.650408955,10.76661902,14102,Cameroon
Bertoua,4.580429707,13.67998124,153286.5,Cameroon
Abong Mbang,3.983696105,13.18331905,7698,Cameroon
Batouri,4.433694477,14.366606,42271,Cameroon
Belabo,4.933689798,13.30000443,11455.5,Cameroon
Meiganga,6.520492166,14.28996985,54864.5,Cameroon
Ngaoundere,7.320365823,13.57998734,134322.5,Cameroon
Tibati,6.46698122,12.63332678,22096,Cameroon
Kontcha,7.967018859,12.23329952,5846,Cameroon
Guider,9.930387389,13.94001705,83319,Cameroon
Mbe,7.850436828,13.6000378,3950,Cameroon
Douala,4.060409769,9.709991006,1622041,Cameroon
Ebolowa,2.900015481,11.15000647,83687.5,Cameroon
Bamenda,5.959983743,10.15001583,419567,Cameroon
Garoua,9.30001243,13.39002478,365436.5,Cameroon
Maroua,10.59556643,14.32469641,260656,Cameroon
Yaounde,3.866700662,11.51665076,1335793.5,Cameroon
Selkirk,50.15002545,-96.88332178,9819.5,Canada
Berens River,52.36655682,-97.03331262,522.5,Canada
Pukatawagan,55.73327639,-101.3166171,431,Canada
Gimli,50.63330345,-96.99998133,2316,Canada
Island Lake,53.96658836,-94.7665776,10,Canada
Melville,50.93331097,-102.7999891,4226,Canada
Weyburn,49.66656659,-103.8500025,9302.5,Canada
La Ronge,55.10000755,-105.3000173,3427,Canada
Stony Rapids,59.26657493,-105.8332664,152,Canada
Camrose,53.01669802,-112.8166386,15747,Canada
Hinton,53.39998212,-117.5833503,10077,Canada
Vegreville,53.49997601,-112.0499671,5745.5,Canada
Stettler,52.33296714,-112.6832876,5449.5,Canada
Lac La Biche,54.77193972,-111.964701,2952.5,Canada
Wetaskiwin,52.96657188,-113.3832966,11562.5,Canada
Meander River,59.03328168,-117.6829824,200,Canada
Creston,49.09996035,-116.516697,4816,Canada
Cranbrook,49.5166791,-115.7666653,17990,Canada
Terrace,54.49999249,-128.5833248,14772,Canada
Chilliwack,49.16664878,-121.949983,51942,Canada
Hall Beach,68.76746684,-81.23608303,654,Canada
Lutselke,62.40005292,-110.7333291,102,Canada
Hay River,60.84999249,-115.7000027,3774,Canada
Déline,65.18334556,-123.4166635,393.5,Canada
Paulatuk,69.38332176,-123.9833214,294,Canada
Tsiigehtchic,67.43328575,-133.7499862,175,Canada
Owen Sound,44.56664532,-80.84998519,22625,Canada
Orillia,44.59997662,-79.41666183,33830.5,Canada
Kapuskasing,49.4166852,-82.43332524,8732,Canada
Thessalon,46.24997927,-83.55000126,1416.5,Canada
Geraldton,49.71664105,-86.96664026,1290,Canada
Belleville,44.16666974,-77.38334924,43990,Canada
Sarnia,42.96663963,-82.3999681,113585,Canada
Peterborough,44.29996909,-78.33326542,79752,Canada
Oshawa,43.87999473,-78.84997807,349476,Canada
London,42.9699986,-81.24998661,340900,Canada
Kitchener,43.44999514,-80.50000655,413056.5,Canada
New Liskeard,47.50000633,-79.66664657,5203,Canada
Brockville,44.5892796,-75.69531275,25172,Canada
Big Beaver House,52.94998374,-89.88328394,10,Canada
Port-Menier,49.82257774,-64.34799504,263,Canada
Riviere-du-Loup,47.83329348,-69.53331161,16403,Canada
Drummondville,45.88333498,-72.4833641,56806,Canada
Sherbrooke,45.40000531,-71.89998885,134549.5,Canada
Cap-Chat,49.09996035,-66.68330469,1475,Canada
Baie-Comeau,49.22266604,-68.15799504,8808,Canada
Natashquan,50.19134076,-61.81065637,722,Canada
Eastmain,52.23333498,-78.51669092,335,Canada
Schefferville,54.80000002,-66.81665572,471,Canada
Salluit,62.18259849,-75.65950098,106,Canada
Amos,48.56663373,-78.11666366,10475.5,Canada
Joliette,46.03332583,-73.43330611,40066.5,Canada
St.-Jerome,45.7666496,-73.99998987,66693.5,Canada
St-Augustin,51.2423102,-58.64699935,3961,Canada
Rouyn-Noranda,48.25001223,-79.03324854,24312.5,Canada
La Sarre,48.8000045,-79.20003422,6366.5,Canada
New Glasgow,45.58327578,-62.63331934,19883.5,Canada
Liverpool,44.03995913,-64.72001367,4331,Canada
Amherst,45.81656903,-64.21658187,8631.5,Canada
Baddeck,46.09998842,-60.75397669,852,Canada
Deer Lake,49.17440025,-57.42691878,3953,Canada
La Scie,49.96701337,-55.58300033,817,Canada
Hopedale,55.44996035,-60.21667098,442,Canada
Happy Valley - Goose Bay,53.29998822,-60.29999923,4309.5,Canada
Port Hope Simpson,52.53329083,-56.30001083,197,Canada
Tofino,49.15207146,-125.9031487,1655,Canada
Steinbach,49.51709251,-96.68330815,9668,Canada
Nelson House,55.80045575,-98.85002344,2500,Canada
Shamattawa,55.85037518,-92.08327885,870,Canada
Oxford House,54.95040428,-95.26659876,184,Canada
Yorkton,51.21706626,-102.4665469,14377.5,Canada
Swift Current,50.28373822,-107.766611,14804.5,Canada
Biggar,52.05040041,-107.9832902,2130,Canada
Kindersley,51.46697349,-109.1332976,4316,Canada
Meadow Lake,54.13011843,-108.4347356,5081.5,Canada
Hudson Bay,52.8504291,-102.3832961,1909,Canada
Lethbridge,49.70049217,-112.8332784,64594,Canada
Brooks,50.56705426,-111.9000021,13453.5,Canada
Lake Louise,51.43369387,-116.1832807,1248,Canada
Athabasca,54.71703351,-113.2665853,2399.5,Canada
Fort Chipewyan,58.71709943,-111.1499962,3222,Canada
Bella Bella,52.14840476,-128.1172809,1400,Canada
Sandspit,53.24040529,-131.8332815,538,Canada
Campbell River,50.01708783,-125.2499882,29941.5,Canada
Port Hardy,50.71707094,-127.4999801,2295,Canada
Nanaimo,49.14602021,-123.9342911,82698,Canada
Quesnel,52.98367678,-122.4832837,13788,Canada
Abbotsford,49.05037681,-122.2999874,151683,Canada
Dawson Creek,55.76696942,-120.233266,10676.5,Canada
Penticton,49.50037518,-119.5832799,34035,Canada
Nelson,49.48365786,-117.2832911,10796,Canada
Lillooet,50.68371381,-121.9332656,2893,Canada
Powell River,49.88371096,-124.5499793,7999.5,Canada
Revelstoke,51.0004645,-118.1833395,7600.5,Canada
Burns Lake,54.21701235,-125.7665975,2633,Canada
Dease Lake,58.45034568,-130.033288,303,Canada
Coral Harbour,64.15377016,-83.17658736,834,Canada
Baker Lake,64.31699017,-96.01665633,1584,Canada
Norman Wells,65.28372703,-126.8499681,650,Canada
Fort McPherson,67.49152508,-134.8949809,1069,Canada
Burwash Landing,61.35037539,-139.0000017,73,Canada
Orangeville,43.91707257,-80.08333948,30812,Canada
Little Current,45.96702496,-81.93332992,1595,Canada
Chapleau,47.83370689,-83.40001042,2663,Canada
Wawa,48.00041506,-84.78333683,2174,Canada
Hearst,49.70049217,-83.66658329,4894.5,Canada
Marathon,48.75039512,-86.36665104,4627,Canada
Sioux Lookout,50.26296429,-91.9166482,4570,Canada
Red Lake,51.03369244,-93.83330123,1765,Canada
Deer Lake,52.61703249,-94.06659448,3743,Canada
Cat Lake,51.71703575,-91.79998865,277,Canada
Cornwall,45.01705711,-74.73333012,47601.5,Canada
Kingston,44.23371991,-76.48330082,108297.5,Canada
Barrie,44.38376243,-79.7000037,150886.5,Canada
Parry Sound,45.33370445,-80.03300663,6787,Canada
Wiarton,44.73368939,-81.13330123,2182,Canada
Cobalt,47.38370852,-79.68331222,1372,Canada
Cochrane,49.06701662,-81.01656417,4441,Canada
Nipigon,49.01704551,-88.24997278,1204,Canada
Atikokan,48.75039512,-91.61658899,3625,Canada
Rimouski,48.43374778,-68.51668115,35584,Canada
Saint-Georges,46.117145,-70.66665328,26149,Canada
Victoriaville,46.05040489,-71.96667729,37963,Canada
Chevery,50.48132306,-59.60978296,284,Canada
Mistassini,50.41706341,-73.86658716,2645,Canada
Kangirsuk,60.02482322,-69.99909713,549,Canada
Shawinigan,46.55037437,-72.733323,41751.5,Canada
Matagami,49.75038576,-77.63328231,1574.5,Canada
Mont-Laurier,46.55037437,-75.50002751,11642,Canada
Pembroke,45.85026206,-77.11664718,15551,Canada
Radisson,53.78362795,-77.61656498,270,Canada
Saint John,45.26704185,-66.07667505,71153,Canada
Edmundston,47.37941937,-68.3332815,17894,Canada
Shelburne,43.76560895,-65.31935694,2553,Canada
Antigonish,45.62691652,-61.99819015,5871,Canada
Windsor,44.98059938,-64.12911951,3759,Canada
Digby,44.62258506,-65.7604928,3000.5,Canada
Stephenville,48.55040733,-58.56656498,6666,Canada
Argentia,47.30043194,-53.98999679,1063,Canada
St. Anthony,51.3837486,-55.5999502,224,Canada
Channel-Port aux Basques,47.56700482,-59.15004358,3232,Canada
Buchans,48.81703188,-56.86659123,685,Canada
Trout River,49.48365786,-58.11664413,452,Canada
Churchill Falls,53.52640851,-63.98067896,75,Canada
Forteau,51.45038535,-56.94999699,448,Canada
Trepassey,46.73697797,-53.36329085,398,Canada
Brochet,57.88322268,-101.6665957,278,Canada
Lynn Lake,56.85002993,-101.0499667,482,Canada
Gillam,56.34998293,-94.69996668,1281,Canada
North Battleford,52.76663576,-108.2833494,15721.5,Canada
Prince Albert,53.20002016,-105.7499899,29643.5,Canada
Courtenay,49.68333559,-124.9999777,28946,Canada
Kelowna,49.89998903,-119.4833118,110207.5,Canada
Pangnirtung,66.13331341,-65.75002832,1320,Canada
Holman,70.73336855,-117.7499809,449,Canada
Dryden,49.78332949,-92.83333643,7862,Canada
Attawapiskat,52.91662661,-82.43332524,1802,Canada
Hamilton,43.24998151,-79.82999577,620501,Canada
Windsor,42.33329327,-83.03334029,265068.5,Canada
Trois-Rivières,46.34997316,-72.54994918,118051,Canada
Sept-Îles,50.31608767,-66.36001693,25686,Canada
Corner Brook,48.94999534,-57.93334782,19742,Canada
Norway House,53.96658836,-97.83328963,5500,Canada
Flin Flon,54.76659121,-101.8833008,6197.5,Canada
Dauphin,51.15001609,-100.0499502,8747.5,Canada
The Pas,53.81662335,-101.2333147,4928.5,Canada
Uranium City,59.56655662,-108.6165849,89,Canada
Moose Jaw,50.39998435,-105.5500021,31436.5,Canada
Jasper,52.88332115,-118.0833714,3504.5,Canada
Medicine Hat,50.03331423,-110.6833322,58382,Canada
Red Deer,52.26664044,-113.8000411,74225,Canada
Banff,51.17799888,-115.5719227,6897,Canada
Grand Prairie,55.16664431,-118.7999943,41153.5,Canada
Smithers,54.76659121,-127.1665896,5841.5,Canada
Kamloops,50.66666058,-120.3332858,68671,Canada
Williams Lake,52.1166496,-122.1499966,12361,Canada
Prince George,53.91666892,-122.7666515,64132.5,Canada
Fort Nelson,58.81670575,-122.5329706,6315,Canada
Pond Inlet,72.68498069,-78.00005579,1549,Canada
Cape Dorset,64.31251972,-76.53857863,1326,Canada
Kimmirut,62.85002545,-69.88331608,385,Canada
Gjoa Haven,68.63329002,-95.91666244,1109,Canada
Grise Fiord,76.44165061,-82.94998621,23,Canada
Alert,82.48332318,-62.24998356,97.5,Canada
Ennadai,61.13328269,-100.883336,0,Canada
Rankin Inlet,62.81666831,-92.09531946,2403,Canada
Fort Resolution,61.16658815,-113.682994,448,Canada
Fort Simpson,61.84998313,-121.3332764,283,Canada
Inuvik,68.34997398,-133.6999893,3022,Canada
Tuktoyaktuk,69.45477459,-133.0492013,899.5,Canada
Watson Lake,60.1166264,-128.80003,802,Canada
Lansdowne House,52.21664349,-87.88332849,120,Canada
Moosonee,51.28060244,-80.65798141,1725,Canada
Sudbury,46.49998985,-80.96664474,119182,Canada
Kenora,49.76668968,-94.46664758,10852,Canada
Gaspe,48.83731488,-64.49336084,3504,Canada
Mingan,50.3017589,-64.01726532,588,Canada
Dolbeau,48.86658958,-72.23332768,13126.5,Canada
Val d'Or,48.11663535,-77.76663334,20625,Canada
Ivugivik,62.41664105,-77.89998438,156,Canada
Inukjuak,58.47000856,-78.13599064,1597,Canada
Chicoutimi,48.43330853,-71.06670638,53940,Canada
Moncton,46.08334861,-64.76667749,89051,Canada
Fredericton,45.94999758,-66.63330774,44525,Canada
Bathurst,47.59997438,-65.64998275,5303.5,Canada
Yarmouth,43.83079447,-66.1125812,7433,Canada
Gander,48.94999534,-54.54998845,3345,Canada
Cartwright,53.70140663,-57.01214114,505,Canada
Rigolet,54.17660138,-58.44732162,124,Canada
Port Burwell,60.26646222,-64.74109766,2762,Canada
Thompson,55.74994204,-97.86662093,13097,Canada
Brandon,49.83327476,-99.94998214,27326,Canada
Fort Smith,60.00001853,-111.8833364,518,Canada
Fort McMurray,56.7333187,-111.3833153,21863,Canada
Peace River,56.23332338,-117.2832911,5014.5,Canada
Fort St. John,56.24998903,-120.8332811,18089,Canada
Iqaluit,63.75045938,-68.50019175,6124,Canada
Cambridge Bay,69.11695559,-105.0333153,1477,Canada
Kugluktuk,67.79866282,-115.1253504,1302,Canada
Chesterfield Inlet,63.33829022,-90.70008163,374,Canada
Arviat,61.10859211,-94.05860672,1868,Canada
Taloyoak,69.5333126,-93.53331954,774,Canada
Igloolik,69.25653506,-81.79359213,1612,Canada
Dawson City,64.0666437,-139.4166687,1319,Canada
Timmins,48.46658815,-81.33331486,33937.5,Canada
North Bay,46.30000205,-79.44999313,45988.5,Canada
Kuujjuarapik,55.28149518,-77.76583236,1243,Canada
Kuujjuaq,58.10000531,-68.39999577,1273,Canada
Sydney,46.06611452,-60.17998071,37538,Canada
Labrador City,52.94143129,-66.91587447,8840,Canada
Winnipeg,49.88298749,-97.16599186,603688,Canada
Churchill,58.76598533,-94.1659941,961.5,Canada
Regina,50.45003298,-104.6170099,176183,Canada
Saskatoon,52.17003135,-106.6699854,194075.5,Canada
Calgary,51.08299176,-114.0799982,1012661,Canada
Prince Rupert,54.31667035,-130.3299882,14708,Canada
Victoria,48.43328269,-123.3500009,270491.5,Canada
Arctic Bay,73.03330568,-85.16662093,604,Canada
Resolute,74.68333417,-94.90000615,239.5,Canada
Repulse Bay,66.52946689,-86.28293502,874,Canada
Yellowknife,62.44201418,-114.3969814,18658.5,Canada
Fort Good Hope,66.26661277,-128.6333218,597,Canada
Whitehorse,60.71671897,-135.0499844,23274,Canada
Ottawa,45.4166968,-75.7000153,978564.5,Canada
Fort Severn,55.98333864,-87.64998356,125,Canada
Thunder Bay,48.44615013,-89.27497481,98354,Canada
Québec,46.83996909,-71.24561019,576386,Canada
Halifax,44.65002525,-63.60000452,290992.5,Canada
St. John’s,47.58498822,-52.68100692,115325.5,Canada
Nain,56.54735147,-61.6860454,1151,Canada
Charlottetown,46.24928164,-63.13132512,36847.5,Canada
Edmonton,53.55002464,-113.4999819,885195.5,Canada
Montréal,45.49999921,-73.58329696,3017278,Canada
Vancouver,49.27341658,-123.1216442,1458415,Canada
Toronto,43.69997988,-79.42002079,4573710.5,Canada
Mindelo,16.88376141,-25.0000092,62962,Cape Verde
Praia,14.91669802,-23.51668889,101111.5,Cape Verde
George Town,19.28043683,-81.32998173,2770.5,Cayman Islands
Mobaye,4.320000059,21.17999753,19431,Central African Republic
Mbaiki,3.870421365,17.99997595,43566,Central African Republic
Carnot,4.933689798,15.8666178,32298,Central African Republic
Bozoum,6.316990376,16.38333044,25440.5,Central African Republic
Kaga Bandoro,6.980386575,19.18000728,42673.5,Central African Republic
Zemio,5.033657856,25.13328731,19239,Central African Republic
Yakossi,5.617007262,23.31665401,409.5,Central African Republic
Nola,3.533697732,16.06660559,25301,Central African Republic
Sibut,5.733770161,19.08332068,26304.5,Central African Republic
Bossangoa,6.483724384,17.44998368,45246,Central African Republic
Birao,10.28369916,22.78330155,5641,Central African Republic
Ouadda,8.06709027,22.40001745,3424.5,Central African Republic
Bangassou,4.733753681,22.81663285,28601,Central African Republic
Bossembele,5.267002786,17.65002315,7287,Central African Republic
Berberati,4.249958922,15.7800081,60605,Central African Republic
Bria,6.533307921,21.9832987,24985.5,Central African Republic
Bouar,5.950010192,15.59996741,31476.5,Central African Republic
Bambari,5.761959655,20.66720333,47322.5,Central African Republic
Ndele,8.409136575,20.65304398,7355.5,Central African Republic
Obo,5.399992085,26.50002559,12837,Central African Republic
Bangui,4.366644306,18.55828813,727348,Central African Republic
Lai,9.395001123,16.30500349,19382,Chad
Zouar,20.458737,16.52776607,204,Chad
Bol,13.45895754,14.71469844,3303,Chad
Ati,13.21706016,18.33328894,24723.5,Chad
Oum Hadjer,13.30041424,19.68333573,11582.5,Chad
Mongo,12.18373822,18.6999849,27763,Chad
Doba,8.650439676,16.8500203,26966.5,Chad
Pala,9.350422789,14.96662105,17835,Chad
Bongor,10.28594708,15.38716386,112229.5,Chad
Kelo,9.317065652,15.80000688,69378.5,Chad
Fada,17.18472495,21.59024776,448,Chad
Faya Largeau,17.91666994,19.11670365,13400,Chad
Mao,14.11943402,15.31331824,15040,Chad
Biltine,14.53325889,20.91669714,6682.5,Chad
Sarh,9.149969909,18.39002966,135862,Chad
Am Timan,11.03329165,20.28329911,29664,Chad
Moundou,8.549980691,16.09001501,145936,Chad
Ndjamena,12.11309654,15.04914831,835193.5,Chad
Abeche,13.83999371,20.82998409,116252.5,Chad
Rio Verde,-52.64997882,-71.46660445,358,Chile
Cuya,-19.11667682,-70.13330082,20,Chile
Chuquicamata,-22.31999551,-68.92998926,11941,Chile
Maria Elena,-22.35001951,-69.66999577,2370,Chile
Tierra Amarilla,-27.4800423,-70.27998438,10733,Chile
Combarbala,-31.18002317,-70.99999211,5134,Chile
San Bernardo,-33.59997882,-70.69998458,243950,Chile
San Felipe,-32.75000486,-70.7200092,49256.5,Chile
Vina del Mar,-33.02998777,-71.53998499,399042.5,Chile
La Ligua,-32.45999673,-71.24002914,25761,Chile
Quillota,-32.87997109,-71.26000208,73732.5,Chile
Nueva Imperial,-38.74002684,-72.96002751,13322.5,Chile
Loncoche,-39.37001422,-72.62999597,8653.5,Chile
Villarica,-39.28004555,-72.22999455,16818,Chile
Tolten,-39.21659053,-73.21233798,2293,Chile
Lonquimay,-38.43332721,-71.23328536,8519.5,Chile
Angol,-37.79000731,-72.71001693,38384.5,Chile
Collipulli,-37.95997109,-72.43000818,11307.5,Chile
La Union,-40.28995807,-73.0899679,22843,Chile
Rio Bueno,-40.34003253,-72.96002751,13059.5,Chile
Coronel,-37.02995034,-73.1600153,78594.5,Chile
Talcahuano,-36.71668781,-73.11665877,270521,Chile
Quirihue,-36.28002195,-72.53000208,6529,Chile
Curanilahue,-37.48000039,-73.34000431,22352.5,Chile
Santa Barbara,-37.67001463,-72.01998153,3494,Chile
Pichilemu,-34.38003457,-71.99998275,11603,Chile
San Fernando,-34.58002236,-70.98996688,60746,Chile
Puerto Varas,-41.32999795,-72.98999984,19569,Chile
Calbuco,-41.75220107,-73.14159106,6933.5,Chile
Castro,-42.48076159,-73.76233415,25184.5,Chile
Chonchi,-42.61002317,-73.80994979,381,Chile
Linares,-35.83999713,-71.58998194,75275,Chile
Cauquenes,-35.96004148,-72.31998906,24155,Chile
Cochrane,-47.26627643,-72.54994918,4441,Chile
Lagunas,-20.98286782,-69.68330245,10,Chile
Pozo Almonte,-20.2696297,-69.80001367,10830,Chile
Toconao,-23.18288857,-68.01663416,378,Chile
Huasco,-28.4695943,-71.22000452,2558,Chile
Diego de Almagro,-26.36961912,-70.04999841,18137,Chile
Caldera,-27.06962807,-70.83002832,10259,Chile
Coquimbo,-29.95291461,-71.34361454,159082.5,Chile
Vicuna,-30.02949909,-70.73998214,13496,Chile
Illapel,-31.62960814,-71.17000757,24578,Chile
Salamanca,-31.77957314,-70.97996749,16739.5,Chile
Los Andes,-32.82958657,-70.59999068,53135,Chile
San Antonio,-33.59951373,-71.60998071,94971.5,Chile
Victoria,-38.23954059,-72.34001367,17989.5,Chile
Carahue,-38.70948606,-73.16998885,8592,Chile
Los Lagos,-39.84951984,-72.82998377,12813,Chile
Lota,-37.08958494,-73.1600153,32702,Chile
Lebu,-37.6095532,-73.64998539,16624.5,Chile
Quellon,-43.09960569,-73.59998845,7029,Chile
Constitucion,-35.32958901,-72.41998295,26902.5,Chile
Villa O'Higgins,-48.46790851,-72.55997441,175,Chile
Puerto Aisen,-45.3999304,-72.70001754,8067,Chile
Puerto Natales,-51.71830442,-72.51168278,10393,Chile
Puerto Williams,-54.93330198,-67.61671025,2381,Chile
Temuco,-38.73000161,-72.57999903,252015,Chile
Tocopilla,-22.09003538,-70.18998987,22355.5,Chile
Calama,-22.45001341,-68.91998987,134336.5,Chile
Mejillones,-23.09999957,-70.44999984,2041,Chile
Taltal,-25.40001422,-70.47002446,8947.5,Chile
Vallenar,-28.57000161,-70.76000676,37876.5,Chile
Chanaral,-29.03002521,-71.43001754,13543,Chile
Ovalle,-30.59003335,-71.20005742,72984,Chile
Chillan,-36.60000242,-72.10599695,149874,Chile
Rancagua,-34.17002155,-70.73998214,222981.5,Chile
Osorno,-40.56999266,-73.1600153,144952,Chile
Ancud,-41.86996499,-73.82997441,24241,Chile
Talca,-35.45500771,-71.67000289,186283.5,Chile
Curico,-34.97999795,-71.24002914,108074.5,Chile
Coihaique,-45.56999754,-72.07000431,43221,Chile
Arica,-18.50002195,-70.28998377,178446.5,Chile
Copiapo,-27.35999795,-70.33998071,117316.5,Chile
La Serena,-29.89999795,-71.24997685,151290,Chile
Los Angeles,-37.46000161,-72.35998661,135334.5,Chile
Punta Arenas,-53.16498615,-70.93999577,106296,Chile
Iquique,-20.24999266,-70.12996769,223012,Chile
Antofagasta,-23.64999184,-70.40000289,295539,Chile
Valparaiso,-33.04776447,-71.62101363,434969,Chile
Valdivia,-39.7950012,-73.24502303,146509,Chile
Concepcion,-36.83001422,-73.05002202,550864,Chile
Puerto Montt,-41.4699894,-72.92997766,167341.5,Chile
Santiago,-33.45001382,-70.66704085,2883305.5,Chile
Yumen,39.83003522,97.72999304,233097,China
Linxia,35.60000917,103.2000468,368478.5,China
Zhuozhou,39.54005292,115.789976,415000,China
Sanming,26.2299868,117.5800476,104941.5,China
Huizhou,23.07997235,114.3999833,289201,China
Chaozhou,23.68003908,116.630028,424787,China
Gyangze,28.95000165,89.63332963,10000,China
Dali,34.79525209,109.937775,109696,China
Yangquan,37.86997398,113.5700081,851801.5,China
Shiyan,32.57003908,110.7799975,653823.5,China
Danjiangkou,32.5200163,111.5000052,92008,China
Shashi,30.32002138,112.2299865,509390,China
Anlu,31.26998924,113.670002,71198,China
Zixing,25.96997683,113.4000443,6618,China
Deyang,31.13333091,104.3999735,152194,China
Tengchong,25.03331565,98.46658891,126058,China
Mengzi,23.3619448,103.4061324,303341,China
Chuxiong,25.03641624,101.5455741,254370,China
Hengshui,37.71998313,115.7000073,456356,China
Xuanhua,40.59440716,115.0243379,391583.5,China
Luohe,33.57000388,114.02998,417356,China
Beipiao,41.81001772,120.7600085,191757,China
Wafangdian,39.62591331,121.9959537,303217.5,China
Zhucheng,35.98995953,119.3800927,881963.5,China
Hangu,39.23195803,117.7769864,270581,China
Xinyi,34.38000612,118.3500264,962656,China
Yangzhou,32.39999778,119.4300122,539715,China
Linhai,28.85000775,121.1199865,202348,China
Huangyan,28.65001996,121.2500044,174580.5,China
Daan,45.49999921,124.2999991,84795.5,China
Changling,44.26999676,123.9899922,46703.5,China
Tonghua,41.67997398,125.7499882,27227,China
Baishan,41.90001223,126.4299983,330000,China
Yanji,42.88230369,129.5127559,407848.5,China
Ergun Zuoqi,50.78332013,121.5166548,42849,China
Shangdu,41.54943931,113.5338863,18831,China
Orongen Zizhiqi,50.56666669,123.7166756,40128,China
Zalantun,48.00000165,122.7199922,135128,China
Wuchuan,41.09551353,111.4408357,23776,China
Hanggin Houqi,40.88469952,107.140013,39954,China
Anda,46.39999595,125.3200402,181402,China
Qinggang,46.69002993,126.1000443,60955,China
Angangxi,47.16005292,123.8000297,24317,China
Hulan Ergi,47.20997235,123.6100154,277671.5,China
Qingan,46.87185345,127.5118444,53206,China
Baiquan,47.60183474,126.0818542,52679.5,China
Suileng,47.24599082,127.1059777,57456.5,China
Linkou,45.28189882,130.2518839,66426.5,China
Longxi,35.04763979,104.6394421,355037,China
Pingliang,35.53037518,106.6800927,157706,China
Anxi,40.50043357,95.79998165,17886,China
Minxian,34.4361784,104.0305904,67826,China
Jinchang,38.49569806,102.1739078,141670,China
Guide,36.04509829,101.4241862,7642,China
Qinzhou,21.95042889,108.6199743,173186,China
Pingxiang,22.09737083,106.7566772,31109,China
Yishan,24.50037661,108.6666898,47062,China
Beihai,21.4804059,109.1000484,567289,China
Hechi,23.09653465,109.6091129,3275189.5,China
Tongren,27.68041506,109.1300207,104441.5,China
Fengjie,31.05044191,109.5166638,49168,China
Changping,40.22476564,116.1943957,372410.5,China
Shaowu,27.30038658,117.5000008,56889.5,China
Longyan,25.18041262,117.0300036,367896,China
Zhangzhou,24.52037539,117.6700162,2434799.5,China
Putian,25.43034568,119.0200114,376558,China
Fuan,27.07042645,119.6200264,81761.5,China
Changting,25.8669857,116.3166621,87458,China
Nanping,26.63037579,118.1699857,192364,China
Ninde,26.68037274,119.5300577,189623.5,China
Jieshou,33.25043683,115.3500028,141993,China
Tongling,30.95044802,117.7800354,437710,China
Maanshan,31.73040041,118.4800443,1000121,China
Fuyang,32.90040651,115.82,170023,China
Yangjiang,21.85040916,111.9700024,751181.5,China
Meizhou,24.30049217,116.1199816,279571,China
Heyuan,23.7304236,114.6800179,269280.5,China
Qingyuan,23.7003996,113.0300927,706717,China
Zhaoqing,23.05041343,112.4500248,420984.5,China
Lianxian,24.78152224,112.3825354,148233,China
Jiangmen,22.58039044,113.0800122,532419,China
Maoming,21.92040489,110.8700179,1217715,China
Gar,32.20039756,79.98332434,5250,China
Turpan,42.93537539,89.1650378,178863.5,China
Quiemo,38.13375633,85.53332149,32494,China
Koktokay,47.00037274,89.46662146,60000,China
Hancheng,35.47043052,110.429993,140092,China
Weinan,34.50043805,109.5000756,172321,China
Shuozhou,39.30037762,112.4200008,408068.5,China
Xinzhou,38.41043194,112.7199825,216805,China
Jincheng,35.50037701,112.8300016,520000,China
Jiexiu,37.04002464,111.8999808,77178,China
Changzhi,36.18387534,113.1052819,706000,China
Guangshui,31.62038129,114.0000077,145885.5,China
Jingmen,31.03039146,112.1000203,400000,China
Zicheng,30.30043601,111.5000052,198212.5,China
Shishou,29.70039512,112.400002,177099,China
Xiaogan,30.92039817,113.9000138,160437,China
Puqi,29.72041974,113.880015,169027.5,China
Yunxian,32.80816408,110.8136389,133558,China
Jinshi,29.63210472,111.851715,178453,China
Chenzhou,25.80042645,113.0300927,251017.5,China
Zhijiang,27.44094647,109.6780493,113907,China
Xiangtan,27.85043052,112.9000232,2183454,China
Zigong,29.40000002,104.780002,897480.5,China
Yaan,29.98042971,103.0800024,340000,China
Langzhong,31.57593955,105.9655627,60542,China
Rongzhag,30.95044802,101.9166626,52500,China
Simao,22.78068829,100.9781669,162725,China
Wenshan,23.3723576,104.2496984,108396,China
Zhanyi,25.6004645,103.8166499,652604,China
Huize,26.35041872,103.4166744,5170,China
Chengde,40.96037966,117.9300004,377629,China
Cangzhou,38.32038576,116.8700134,527681,China
Baoding,38.87042971,115.4800207,1051326,China
Huanghua,38.37043439,117.330037,104243,China
Dingzhou,38.50042645,114.9999983,152934,China
Nangong,37.37039207,115.3700016,82386,China
Linqing,36.85039797,115.6800085,110046,China
Xiangtai,37.04997235,114.5000288,611739,China
Puyang,35.70039064,114.9799996,666322,China
Hebi,35.95037539,114.2200459,244662,China
Xuchang,34.02038983,113.8200187,449258,China
Zhoukou,33.63041363,114.6300468,377061,China
Dengzhou,32.68036826,112.0800215,59338,China
Tieling,42.30037539,123.8199768,336953.5,China
Chaoyang,41.55042116,120.4199776,440150.5,China
Huanren,41.25633059,125.3459818,91384,China
Zhuanghe,39.6822923,122.9618896,170947,China
Yishui,35.79043683,118.6199841,94115,China
Shanxian,34.79042035,116.0799841,74459,China
Pingyi,35.51042808,117.6200451,78254,China
Pingdu,36.79037579,119.9400069,91077,China
Laiwu,36.2004118,117.6600427,124108,China
Buizhou,37.37039207,118.0200207,115893,China
Liaocheng,36.4304236,115.9700166,226930,China
Rizhao,35.43038129,119.4500109,555693.5,China
Dezhou,37.45041302,116.3000223,379555,China
Linchuan,27.97034568,116.3600187,241104,China
Fengcheng,28.20040916,115.7700288,61469,China
Jian,27.13042279,114.9999983,490221,China
Shangrao,28.47039268,117.9699979,922421.5,China
Jingdezhen,29.27042137,117.1800203,383931.5,China
Taizhou,32.4904057,119.9000093,612356,China
Shuyang,34.12986635,118.7733597,1770000,China
Lianyungang,34.60043194,119.170028,715600,China
Lishui,28.45041974,119.9000093,135861.5,China
Jiaojing,28.6804057,121.4499922,471152,China
Quzhou,28.97043968,118.8699947,226108,China
Fuyu,45.18038047,124.8200191,247804.5,China
Dunhua,43.35049217,128.2200183,170357,China
Nongan,44.43040041,125.1700752,141482,China
Taonan,45.33042299,122.7800402,114715,China
Liuhe,42.27885215,125.7173287,67956.5,China
Huinan,42.62293968,126.2614298,43261.5,China
Panshi,42.94263592,126.0561193,83208,China
Jiaohe,43.71628379,127.3459631,90420,China
Linjiang,41.83634686,126.9359623,76732,China
Wangqing,43.32478314,129.7343444,79825,China
Helong,42.53475384,129.0043632,83032.5,China
Shulan,44.40910972,126.9487264,78092,China
Jiutai,44.14473309,125.8443493,190257,China
Alxa Zuoqi,38.83901044,105.6686299,56387,China
Linxi,43.51707115,118.0333016,679,China
Kailu,43.58373374,121.1999816,2809,China
Bairin Zuoqi,43.98370933,119.1833606,48540,China
Yitulihe,50.65162274,121.5166548,19645,China
Yakeshi,49.28041445,120.7300362,107047,China
Bugt,48.78380393,121.9333736,17457,China
Wuyuan,41.08962242,108.2721919,30057,China
Bayan Obo,41.76764305,109.9711063,27476,China
Fengzhen,40.45469993,113.1443493,85809,China
Suihua,46.63042116,126.9799906,250903,China
Shuangyashan,46.67041872,131.3500081,500000,China
Shangzhi,45.22042971,127.9700077,89699.5,China
Fujin,47.2703821,132.019993,80092.5,China
Yian,47.88039654,125.2999898,39924,China
Tailai,46.3903583,123.409976,71307.5,China
Longjiang,47.34040367,123.1800158,87115,China
Gannan,47.92036826,123.5100215,46854.5,China
Hailun,47.45042279,126.9300195,104848.5,China
Mishan,45.55038373,131.8800016,80459,China
Tieli,46.95037579,128.0500028,109228.5,China
Shuangcheng,45.35034426,126.2799816,118525,China
Zhaodong,46.08042889,125.98,167193,China
Lanxi,46.2663607,126.2759509,67011,China
Keshan,48.02633079,125.8659501,72403,China
Nancha,47.13635927,129.285948,104570.5,China
Xinqing,48.23634381,129.5059346,42617.5,China
Hulin,45.76902671,132.9922334,42559,China
Boli,45.75636599,130.5759468,83317,China
Ningan,44.33133669,129.4659371,54636,China
Jyekundo,33.01662681,96.73330969,16500,China
Liuzhou,24.28000246,109.2500134,1436030.5,China
Xingyi,25.09041811,104.8900211,539536,China
Anshun,26.25039899,105.9300093,600468,China
Zunyi,27.70002626,106.9200264,657646,China
Wanzhou,30.81999086,108.4000394,1680000,China
Huaibei,33.95036826,116.7500207,908019.5,China
Wuhu,31.3504236,118.3699735,658762,China
Luan,31.75034751,116.4800114,1408227.5,China
Bengbu,32.94999005,117.330037,735324,China
Anqing,30.49995872,117.0500024,469579,China
Foshan,23.03005292,113.1200097,785174,China
Nagchu,31.48000226,92.05002966,2250,China
Nyingchi,29.53329938,94.41670691,55,China
Chamdo,31.16668805,97.23327917,93140,China
Korla,41.72999676,86.15002803,192919,China
Kuqa,41.72774884,82.93637406,89802,China
Tacheng,46.75002626,82.95001664,49796,China
Shihezi,44.29996909,86.02993201,572977,China
Karamay,45.58994204,84.8599259,108769,China
Aksu,41.15000633,80.25002641,309704.5,China
Sanya,18.25910454,109.5040317,253721,China
Haikou,20.05000226,110.3200256,1606808.5,China
Hanzhong,33.12997906,107.0299939,145986,China
Baoji,34.38000612,107.1499865,800000,China
Tongchuan,35.07998924,109.0299751,252930.5,China
Linfen,36.08034161,111.520004,533283,China
Yuci,37.68039899,112.7300077,537964.5,China
Datong,40.08001996,113.2999987,1462839,China
Jianmen,30.65005292,113.1600073,937875,China
Yichang,30.69997235,111.2800187,675862.5,China
Xiantao,30.3704059,113.4400419,897703,China
Macheng,31.17999473,115.0300223,126366,China
Huangshi,30.22000165,115.0999922,688090,China
Zhuzhou,27.82999249,113.1500337,894679,China
Yongzhou,26.23037437,111.6199979,700180.5,China
Yiyang,28.60041058,112.3300321,777304,China
Changde,29.02999676,111.6800459,993390,China
Shaoyang,26.99999147,111.2000752,45617,China
Leshan,29.56709576,103.7333475,655738.5,China
Panzhihua,26.5499931,101.7300073,446298,China
Fulin,29.35000307,102.7167171,1049,China
Guangyuan,32.42999595,105.870013,325400,China
Luzhou,28.87998008,105.380017,1537000,China
Yibin,28.7699868,104.5700406,572055.5,China
Zhaotang,27.32038535,103.720015,459200,China
Lijiang,26.80000368,100.2665824,18445,China
Yuxi,24.37999636,102.5700077,250077,China
Dali,25.70001914,100.1799727,145362.5,China
Qinhuangdao,39.93036501,119.6200264,881359,China
Langfang,39.5203642,116.6799991,694465.5,China
Zhangjiakou,40.83000002,114.9299768,802820.5,China
Tangshan,39.62433718,118.194377,1737974.5,China
Anyang,36.07997988,114.3500122,834064.5,China
Jiaozuo,35.2500047,113.2200036,687270,China
Kaifeng,34.85000327,114.3500122,872000,China
Shangqiu,34.45041526,115.6500362,967109,China
Pingdingshan,33.73040753,113.2999987,849000,China
Xinyang,32.130376,114.0699776,1411944,China
Xinxiang,35.32043968,113.8699898,823300.5,China
Luoyang,34.67998781,112.4700752,1552790.5,China
Liaoyang,41.27999839,123.1800158,740945,China
Dandong,40.14360781,124.3935852,750986.5,China
Yingkow,40.67034568,122.2800191,693079.5,China
Jinzhou,41.12036989,121.1000394,780134.5,China
Fuxin,42.0104706,121.6600052,729525,China
Benxi,41.33038291,123.7500069,923933,China
Fushun,41.86538902,123.8699996,1435323,China
Jining,35.40040895,116.5500329,818163.5,China
Weifang,36.7204059,119.1001098,973866,China
Taian,36.19999839,117.1200756,1629000,China
Heze,35.22998008,115.4500484,796301,China
Laiyang,36.9684011,120.7084354,209797,China
Xinyu,27.80002016,114.9299768,505240,China
Ganzhou,25.91997988,114.9500272,1216134.5,China
Jiujiang,29.72997988,115.9800419,545616,China
Changzhou,31.77998395,119.9699792,1138009,China
Zhenjiang,32.21998293,119.4300122,743276,China
Nantong,32.0303821,120.8250175,806625.5,China
Jiaxing,30.77040733,120.7499833,727050.5,China
Huzhou,30.87037539,120.0999971,694660,China
Shaoxing,30.00037681,120.5700459,599141.5,China
Jinhua,29.12004295,119.6499987,617529,China
Liaoyuan,42.89997703,125.1299743,485898.5,China
Tumen,42.9699986,129.8200756,89220,China
Siping,43.17001223,124.3300232,528811,China
Baicheng,45.62001772,122.8200378,351915.5,China
Wuhai,39.66469647,106.8122294,218427,China
Erenhot,43.66155845,111.9654549,19357,China
Jining,41.02998781,113.0800122,270236.5,China
Arxan,47.18330731,119.9666202,32023,China
Manzhouli,49.59998151,117.4299792,74214,China
Xilinhot,43.94433189,116.0443274,116156.5,China
Heihe,50.25001935,127.4460087,54923,China
Qitaihe,45.7999809,130.8500386,397825,China
Yichun,47.69994244,128.8999768,443111.5,China
Hegang,47.40001243,130.3700162,657833.5,China
Nenjiang,49.1799813,125.2300199,79685,China
Nehe,48.48999758,124.8800154,74937.5,China
Mudangiang,44.57501691,129.5900122,954957.5,China
Xuanzhou,30.9525,118.7552778,866000,China
Zhuhai,22.2769444,113.5677778,1023000,China
Xianyang,34.3455556,108.7147222,1126000,China
Xiangfan,32.01999514,112.1300443,765978,China
Suining,30.5333333,105.5333333,1425000,China
Lingyuan,41.24,119.4011111,806000,China
Weihai,37.49997072,122.0999784,356425,China
Yichun,27.8333333,114.4,982000,China
Yancheng,33.3855556,120.1252778,839000,China
Fuyang,30.0533333,119.9519444,771000,China
Xiamen,24.44999208,118.080017,1548668.5,China
Nanchong,30.78043256,106.1299971,2174000,China
Neijiang,29.58037661,105.0500114,1006427,China
Nanyang,33.00040041,112.5300199,1097766,China
Jinxi,40.7503408,120.8299784,1369623.5,China
Yantai,37.53040814,121.4000211,1417666,China
Zaozhuang,34.88000144,117.5700223,1164332.5,China
Suzhou,31.30047833,120.620017,1496545.5,China
Xuzhou,34.28001223,117.1800203,1645096.5,China
Wuxi,31.57999615,120.2999849,1428823.5,China
Jilin,43.84997072,126.5500427,2138988.5,China
Zhangye,38.9299868,100.4500337,163478,China
Wuwei,37.92800661,102.6410111,493092,China
Dunhuang,40.14267763,94.66201493,139225,China
Tianshui,34.60001853,105.9199841,649883.5,China
Dulan,36.16658958,98.26660111,50,China
Golmud,36.416626,94.88334509,107092,China
Yulin,22.62997398,110.1500101,637742.5,China
Bose,23.8997156,106.6133268,132942.5,China
Wuzhou,23.48002545,111.3200162,354080.5,China
Lupanshui,26.59443483,104.8333321,886256,China
Quanzhou,24.9000163,118.5799865,823571.5,China
Hefei,31.85003135,117.2800142,1711952,China
Suzhou,33.6361111,116.9788889,1964000,China
Zhanjiang,21.19998374,110.3800219,1113895,China
Shaoguan,24.79997072,113.5799816,674507.5,China
Xigaze,29.25000917,88.88334957,59314.5,China
Shache,38.42614158,77.25000281,282391.5,China
Yining,43.90001935,81.35001094,403489,China
Altay,47.86659894,88.11662634,140670.5,China
Shizuishan,39.23327578,106.7690279,109824,China
Yulin,38.28330792,109.7332914,123415,China
Ankang,32.67998069,109.0200016,1025000,China
Houma,35.61998212,111.2099971,102400,China
Yueyang,29.38005292,113.1000109,826000,China
Hengyang,26.88002464,112.5900162,887801,China
Mianyang,31.46997703,104.7699768,830068,China
Xichang,27.88001528,102.2999983,253390,China
Baoshan,25.11997703,99.15000972,925000,China
Gejiu,23.37997988,103.1500756,142620,China
Shijianzhuang,38.05001467,114.4799784,2204737,China
Handan,36.5799752,114.4799784,1494659,China
Anshan,41.11502138,122.9400305,1419137.5,China
Dalian,38.92283839,121.6298308,2601153.5,China
Qingdao,36.08997927,120.3300089,2254122.5,China
Linyi,35.07998924,118.329976,1176334.5,China
Huaiyin,33.58000327,119.0299849,909615,China
Wenzhou,28.0199809,120.6500927,1607836,China
Ningbo,29.87997072,121.5500378,1321433.5,China
Tongliao,43.61995892,122.2699939,572555,China
Hohhot,40.81997479,111.6599955,1250238.5,China
Chifeng,42.27001548,118.9499898,811827,China
Ulanhot,46.08001548,122.0800313,203870,China
Hailar,49.19998008,119.7000215,221118.5,China
Jiamusi,46.83002138,130.3500175,784774.5,China
Beian,48.23900515,126.4820365,154936,China
Daqing,46.57995913,125.0000081,948244,China
Jixi,45.29995974,130.9700313,684379.5,China
Jiayuguan,39.82000999,98.29998409,135337.5,China
Xining,36.6199986,101.7700048,907765.5,China
Guilin,25.2799931,110.280028,818176,China
Huainan,32.62998374,116.9799808,1239327.5,China
Shantou,23.37000633,116.6700256,1467486.5,China
Lhasa,29.64502382,91.10001013,169160,China
Hami,42.82698407,93.51500484,218960,China
Hotan,37.09971092,79.92694535,187865,China
Kashgar,39.47633588,75.9699259,472069.5,China
Yinchuan,38.46797365,106.2730375,657614,China
Pingxiang,27.62000531,113.8500427,666561.5,China
Qiqihar,47.34497703,123.9899922,1261682,China
